[
  {
    "id": 1,
    "name": "中共一大纪念馆",
    "address": "上海市黄浦区兴业路76号",
    "longitude": 121.4737,
    "latitude": 31.2208,
    "category": 3,
    "categoryName": "会议旧址",
    "brief_intro": "中国共产党第一次全国代表大会会址，中国革命的起源地",
    "historical_background": "1921年7月，中国共产党第一次全国代表大会在此召开，宣告中国共产党正式成立。这是开天辟地的大事变，中国革命面貌从此焕然一新。",
    "per_capita_consumption": 0,
    "business_hours": "09:00-17:00（周一闭馆）",
    "average_rating": 4.5,
    "total_ratings": 100,
    "heat_score": 100,
    "recommend_score": 80
  },
  {
    "id": 2,
    "name": "南湖革命纪念馆",
    "address": "浙江省嘉兴市南湖区烟雨路1号",
    "longitude": 120.7575,
    "latitude": 30.7536,
    "category": 1,
    "categoryName": "纪念馆",
    "brief_intro": "纪念中共一大在南湖红船上闭幕的历史事件",
    "historical_background": "1921年7月，中共一大因法租界巡捕袭扰，从上海转移到嘉兴南湖的一艘画舫上继续举行并胜利闭幕，庄严宣告了中国共产党的诞生。",
    "per_capita_consumption": 0,
    "business_hours": "08:30-17:00（周一闭馆）",
    "average_rating": 4.5,
    "total_ratings": 100,
    "heat_score": 100,
    "recommend_score": 80
  },
  {
    "id": 3,
    "name": "中共二大会址纪念馆",
    "address": "上海市静安区老成都北路7弄30号",
    "longitude": 121.4678,
    "latitude": 31.2304,
    "category": 3,
    "categoryName": "会议旧址",
    "brief_intro": "中国共产党第二次全国代表大会会址",
    "historical_background": "1922年7月，中共二大在此召开，首次提出反帝反封建的民主革命纲领，制定了中国共产党第一部党章。",
    "per_capita_consumption": 0,
    "business_hours": "09:00-16:30（周一闭馆）",
    "average_rating": 4.5,
    "total_ratings": 100,
    "heat_score": 100,
    "recommend_score": 80
  },
  {
    "id": 4,
    "name": "广州农民运动讲习所旧址",
    "address": "广东省广州市越秀区中山四路42号",
    "longitude": 113.2644,
    "latitude": 23.1291,
    "category": 3,
    "categoryName": "会议旧址",
    "brief_intro": "培养农民运动干部的重要场所",
    "historical_background": "1924-1926年，毛泽东等共产党人在这里主办了六届农民运动讲习所，培养了大批农民运动骨干，为中国革命奠定了重要的群众基础。",
    "per_capita_consumption": 0,
    "business_hours": "09:00-17:00（周一闭馆）",
    "average_rating": 4.5,
    "total_ratings": 100,
    "heat_score": 100,
    "recommend_score": 80
  },
  {
    "id": 5,
    "name": "安源路矿工人运动纪念馆",
    "address": "江西省萍乡市安源区安源镇",
    "longitude": 113.95,
    "latitude": 27.6167,
    "category": 1,
    "categoryName": "纪念馆",
    "brief_intro": "中国共产党领导工人运动的最早实践地之一",
    "historical_background": "1922年，毛泽东、李立三、刘少奇等在此领导了安源路矿工人大罢工，这是中国共产党第一次独立领导并取得完全胜利的工人斗争。",
    "per_capita_consumption": 0,
    "business_hours": "09:00-16:30（周一闭馆）",
    "average_rating": 4.5,
    "total_ratings": 100,
    "heat_score": 100,
    "recommend_score": 80
  },
  {
    "id": 6,
    "name": "京汉铁路总工会旧址",
    "address": "河南省郑州市二七区钱塘路",
    "longitude": 113.6253,
    "latitude": 34.7466,
    "category": 3,
    "categoryName": "会议旧址",
    "brief_intro": "京汉铁路工人大罢工指挥中心",
    "historical_background": "1923年2月，京汉铁路工人在此成立总工会，举行震惊中外的大罢工，虽遭血腥镇压，但显示了中国工人阶级的力量。",
    "per_capita_consumption": 0,
    "business_hours": "09:00-17:00（周一闭馆）",
    "average_rating": 4.5,
    "total_ratings": 100,
    "heat_score": 100,
    "recommend_score": 80
  },
  {
    "id": 7,
    "name": "上海四行仓库抗战纪念馆",
    "address": "上海市静安区光复路1号",
    "longitude": 121.4751,
    "latitude": 31.2401,
    "category": 1,
    "categoryName": "纪念馆",
    "brief_intro": "淞沪会战中八百壮士英勇抗战的遗址",
    "historical_background": "1937年淞沪会战期间，谢晋元率八百壮士在四行仓库孤军奋战四天四夜，粉碎了日军三个月灭亡中国的狂妄计划，极大鼓舞了全国军民的抗战决心。",
    "per_capita_consumption": 0,
    "business_hours": "09:00-16:30（周一闭馆）",
    "average_rating": 4.5,
    "total_ratings": 100,
    "heat_score": 100,
    "recommend_score": 80
  },
  {
    "id": 8,
    "name": "南京大屠杀纪念馆",
    "address": "江苏省南京市建邺区水西门大街418号",
    "longitude": 118.7506,
    "latitude": 32.0422,
    "category": 1,
    "categoryName": "纪念馆",
    "brief_intro": "纪念南京大屠杀惨案，铭记历史珍爱和平",
    "historical_background": "1937年12月，侵华日军在南京制造了惨绝人寰的大屠杀，30万同胞惨遭杀害。纪念馆通过大量史实揭露日军暴行，警示后人勿忘国耻。",
    "per_capita_consumption": 0,
    "business_hours": "08:30-16:30（周一闭馆）",
    "average_rating": 4.5,
    "total_ratings": 100,
    "heat_score": 100,
    "recommend_score": 80
  },
  {
    "id": 9,
    "name": "台儿庄大战纪念馆",
    "address": "山东省枣庄市台儿庄区沿河南路",
    "longitude": 117.735,
    "latitude": 34.5576,
    "category": 1,
    "categoryName": "纪念馆",
    "brief_intro": "纪念抗战初期台儿庄大捷",
    "historical_background": "1938年春的台儿庄战役是自抗战以来中国军队的重大胜利，歼敌万余人，极大鼓舞了全国军民的抗战信心。",
    "per_capita_consumption": 0,
    "business_hours": "08:30-17:00",
    "average_rating": 4.5,
    "total_ratings": 100,
    "heat_score": 100,
    "recommend_score": 80
  },
  {
    "id": 10,
    "name": "八路军太行纪念馆",
    "address": "山西省长治市武乡县太行街",
    "longitude": 112.8361,
    "latitude": 36.8333,
    "category": 1,
    "categoryName": "纪念馆",
    "brief_intro": "全面反映八路军抗战历史的大型纪念馆",
    "historical_background": "抗日战争时期，八路军在太行山区创建抗日根据地，开展了著名的百团大战等战役，为抗战胜利作出巨大贡献。",
    "per_capita_consumption": 0,
    "business_hours": "09:00-17:00（周一闭馆）",
    "average_rating": 4.5,
    "total_ratings": 100,
    "heat_score": 100,
    "recommend_score": 80
  },
  {
    "id": 11,
    "name": "新四军军部旧址",
    "address": "安徽省宣城市泾县云岭乡",
    "longitude": 118.411,
    "latitude": 30.6914,
    "category": 3,
    "categoryName": "会议旧址",
    "brief_intro": "新四军军部驻地旧址",
    "historical_background": "1938-1941年，新四军军部驻此，指挥华中抗日游击战争。1941年1月，皖南事变爆发，新四军遭受重大损失。",
    "per_capita_consumption": 0,
    "business_hours": "08:30-17:00",
    "average_rating": 4.5,
    "total_ratings": 100,
    "heat_score": 100,
    "recommend_score": 80
  },
  {
    "id": 12,
    "name": "皖南事变烈士陵园",
    "address": "安徽省宣城市泾县水西山路",
    "longitude": 118.4039,
    "latitude": 30.6844,
    "category": 2,
    "categoryName": "烈士陵园",
    "brief_intro": "纪念皖南事变中牺牲的新四军烈士",
    "historical_background": "1941年1月，皖南新四军9000余人在泾县茂林地区被国民党军8万余人包围，血战七昼夜，3000余人突出重围，4000余人被俘或失散，3000余人壮烈牺牲。",
    "per_capita_consumption": 0,
    "business_hours": "全天开放",
    "average_rating": 4.5,
    "total_ratings": 100,
    "heat_score": 100,
    "recommend_score": 80
  },
  {
    "id": 13,
    "name": "辽沈战役纪念馆",
    "address": "辽宁省锦州市凌河区北京路五段1号",
    "longitude": 121.14,
    "latitude": 41.11,
    "category": 1,
    "categoryName": "纪念馆",
    "brief_intro": "展示辽沈战役全过程的专题纪念馆",
    "historical_background": "1948年9-11月，东北野战军发起辽沈战役，歼灭国民党军47万余人，解放东北全境，为解放全中国奠定基础。",
    "per_capita_consumption": 0,
    "business_hours": "09:00-16:30（周一闭馆）",
    "average_rating": 4.5,
    "total_ratings": 100,
    "heat_score": 100,
    "recommend_score": 80
  },
  {
    "id": 14,
    "name": "淮海战役纪念馆",
    "address": "江苏省徐州市泉山区解放南路2号",
    "longitude": 117.1848,
    "latitude": 34.2221,
    "category": 1,
    "categoryName": "纪念馆",
    "brief_intro": "纪念淮海战役胜利的专题纪念馆",
    "historical_background": "1948年11月-1949年1月，华东、中原野战军在以徐州为中心的广大地区发起淮海战役，歼灭国民党军55万余人，为渡江作战创造了条件。",
    "per_capita_consumption": 0,
    "business_hours": "09:00-17:00（周一闭馆）",
    "average_rating": 4.5,
    "total_ratings": 100,
    "heat_score": 100,
    "recommend_score": 80
  },
  {
    "id": 15,
    "name": "平津战役纪念馆",
    "address": "天津市红桥区平津道8号",
    "longitude": 117.1346,
    "latitude": 39.1518,
    "category": 1,
    "categoryName": "纪念馆",
    "brief_intro": "纪念平津战役胜利的专题纪念馆",
    "historical_background": "1948年11月-1949年1月，东北野战军和华北军区部队发起平津战役，歼灭和改编国民党军52万余人，基本解放华北全境。",
    "per_capita_consumption": 0,
    "business_hours": "09:00-16:30（周一闭馆）",
    "average_rating": 4.5,
    "total_ratings": 100,
    "heat_score": 100,
    "recommend_score": 80
  },
  {
    "id": 16,
    "name": "渡江战役纪念馆",
    "address": "安徽省合肥市包河区云谷路299号",
    "longitude": 117.35,
    "latitude": 31.7333,
    "category": 1,
    "categoryName": "纪念馆",
    "brief_intro": "纪念百万雄师过大江的渡江战役",
    "historical_background": "1949年4月20日-6月2日，人民解放军百万大军发起渡江战役，突破长江天险，解放南京、上海等大城市，宣告国民党反动统治的覆灭。",
    "per_capita_consumption": 0,
    "business_hours": "09:00-17:00（周一闭馆）",
    "average_rating": 4.5,
    "total_ratings": 100,
    "heat_score": 100,
    "recommend_score": 80
  },
  {
    "id": 17,
    "name": "西柏坡纪念馆",
    "address": "河北省石家庄市平山县西柏坡镇",
    "longitude": 114.0294,
    "latitude": 38.3589,
    "category": 1,
    "categoryName": "纪念馆",
    "brief_intro": "中共中央最后一个农村指挥所",
    "historical_background": "1948年5月-1949年3月，中共中央移驻西柏坡，指挥了三大战役，召开了七届二中全会，描绘了新中国的蓝图。",
    "per_capita_consumption": 0,
    "business_hours": "08:30-17:30",
    "average_rating": 4.5,
    "total_ratings": 100,
    "heat_score": 100,
    "recommend_score": 80
  },
  {
    "id": 18,
    "name": "香山革命纪念馆",
    "address": "北京市海淀区买卖街40号",
    "longitude": 116.1934,
    "latitude": 39.9911,
    "category": 1,
    "categoryName": "纪念馆",
    "brief_intro": "中共中央'进京赶考'第一站",
    "historical_background": "1949年3月25日-9月21日，中共中央从西柏坡迁至香山，指挥了渡江战役，筹备了新政协，为新中国的成立作了充分准备。",
    "per_capita_consumption": 0,
    "business_hours": "09:00-16:00（周一闭馆）",
    "average_rating": 4.5,
    "total_ratings": 100,
    "heat_score": 100,
    "recommend_score": 80
  },
  {
    "id": 19,
    "name": "雨花台烈士陵园",
    "address": "江苏省南京市雨花台区雨花路215号",
    "longitude": 118.7628,
    "latitude": 31.9922,
    "category": 2,
    "categoryName": "烈士陵园",
    "brief_intro": "纪念新民主主义革命时期牺牲的雨花台烈士",
    "historical_background": "1927-1949年，近10万共产党人和革命志士在雨花台英勇就义。1950年建园，是全国规模最大的纪念性陵园之一。",
    "per_capita_consumption": 0,
    "business_hours": "08:00-17:00",
    "average_rating": 4.5,
    "total_ratings": 100,
    "heat_score": 100,
    "recommend_score": 80
  },
  {
    "id": 20,
    "name": "重庆歌乐山烈士陵园",
    "address": "重庆市沙坪坝区烈士墓政法村",
    "longitude": 106.4064,
    "latitude": 29.5633,
    "category": 2,
    "categoryName": "烈士陵园",
    "brief_intro": "纪念被国民党杀害的红岩英烈",
    "historical_background": "1949年11月27日，国民党特务在溃逃前夕，对关押在白公馆、渣滓洞的革命者进行大屠杀，300余人壮烈牺牲。",
    "per_capita_consumption": 0,
    "business_hours": "09:00-17:00",
    "average_rating": 4.5,
    "total_ratings": 100,
    "heat_score": 100,
    "recommend_score": 80
  },
  {
    "id": 21,
    "name": "双清别墅",
    "address": "北京市海淀区香山公园内",
    "longitude": 116.1934,
    "latitude": 39.9911,
    "category": 5,
    "categoryName": "名人故居",
    "brief_intro": "毛泽东在香山的居住地",
    "historical_background": "1949年3月25日，毛泽东等中央领导人进驻香山，双清别墅成为毛泽东同志的居住地，是筹建新中国的历史见证地。",
    "per_capita_consumption": 15,
    "business_hours": "06:00-18:00",
    "average_rating": 4.5,
    "total_ratings": 100,
    "heat_score": 100,
    "recommend_score": 80
  },
  {
    "id": 22,
    "name": "天安门广场",
    "address": "北京市东城区天安门广场",
    "longitude": 116.3975,
    "latitude": 39.9087,
    "category": 9,
    "categoryName": "其他纪念地",
    "brief_intro": "中华人民共和国成立的历史见证地",
    "historical_background": "1949年10月1日，毛泽东主席在天安门城楼庄严宣告中华人民共和国成立，标志着新民主主义革命的基本胜利。",
    "per_capita_consumption": 0,
    "business_hours": "05:00-22:00",
    "average_rating": 4.5,
    "total_ratings": 100,
    "heat_score": 100,
    "recommend_score": 80
  },
  {
    "id": 23,
    "name": "抗美援朝纪念馆",
    "address": "辽宁省丹东市振兴区山上街7号",
    "longitude": 124.3835,
    "latitude": 40.1258,
    "category": 1,
    "categoryName": "纪念馆",
    "brief_intro": "纪念抗美援朝战争的专题纪念馆",
    "historical_background": "1950-1953年，中国人民志愿军赴朝作战，与朝鲜军民并肩战斗，打败了以美国为首的联合国军，保卫了新中国的安全。",
    "per_capita_consumption": 0,
    "business_hours": "09:00-16:30（周一闭馆）",
    "average_rating": 4.5,
    "total_ratings": 100,
    "heat_score": 100,
    "recommend_score": 80
  },
  {
    "id": 24,
    "name": "雷锋纪念馆",
    "address": "辽宁省抚顺市望花区雷锋路东段61号",
    "longitude": 123.9115,
    "latitude": 41.8473,
    "category": 1,
    "categoryName": "纪念馆",
    "brief_intro": "纪念共产主义战士雷锋的专题纪念馆",
    "historical_background": "雷锋是新中国成立后涌现出的优秀共产主义战士，全心全意为人民服务的光辉典范，1962年因公殉职，年仅22岁。",
    "per_capita_consumption": 0,
    "business_hours": "09:00-16:00（周一闭馆）",
    "average_rating": 4.5,
    "total_ratings": 100,
    "heat_score": 100,
    "recommend_score": 80
  },
  {
    "id": 25,
    "name": "大庆油田历史陈列馆",
    "address": "黑龙江省大庆市萨尔图区中七路",
    "longitude": 125.1028,
    "latitude": 46.5892,
    "category": 8,
    "categoryName": "博物馆",
    "brief_intro": "展示大庆油田开发建设历史的专题馆",
    "historical_background": "1959年发现大庆油田，1960年开展石油大会战，铁人王进喜等老一辈石油工人铸就了'大庆精神'和'铁人精神'。",
    "per_capita_consumption": 0,
    "business_hours": "08:30-17:00",
    "average_rating": 4.5,
    "total_ratings": 100,
    "heat_score": 100,
    "recommend_score": 80
  },
  {
    "id": 26,
    "name": "铁人王进喜纪念馆",
    "address": "黑龙江省大庆市让胡路区中原路2号",
    "longitude": 124.8563,
    "latitude": 46.6524,
    "category": 1,
    "categoryName": "纪念馆",
    "brief_intro": "纪念'铁人'王进喜的专题纪念馆",
    "historical_background": "王进喜是大庆石油工人的杰出代表，'铁人精神'的化身，为我国石油工业发展作出了卓越贡献。",
    "per_capita_consumption": 0,
    "business_hours": "08:30-17:00（周一闭馆）",
    "average_rating": 4.5,
    "total_ratings": 100,
    "heat_score": 100,
    "recommend_score": 80
  },
  {
    "id": 27,
    "name": "两弹一星纪念馆",
    "address": "北京市海淀区怀柔区雁栖镇",
    "longitude": 116.6573,
    "latitude": 40.3616,
    "category": 1,
    "categoryName": "纪念馆",
    "brief_intro": "纪念'两弹一星'伟大成就的专题纪念馆",
    "historical_background": "1960-1970年代，我国在极端困难的条件下成功研制原子弹、氢弹和人造卫星，极大提升了国际地位和国防实力。",
    "per_capita_consumption": 30,
    "business_hours": "09:00-16:00（需预约）",
    "average_rating": 4.5,
    "total_ratings": 100,
    "heat_score": 100,
    "recommend_score": 80
  },
  {
    "id": 28,
    "name": "两弹城景区",
    "address": "四川省绵阳市梓潼县文昌镇",
    "longitude": 105.2278,
    "latitude": 31.6472,
    "category": 9,
    "categoryName": "其他纪念地",
    "brief_intro": "中国工程物理研究院旧址，'两弹一星'精神发源地",
    "historical_background": "1960年代，邓稼先等科学家在此研制核武器，成功研制出中国第一颗原子弹和氢弹，铸就了伟大的'两弹一星'精神。",
    "per_capita_consumption": 4000,
    "business_hours": "09:00-17:00",
    "average_rating": 4.5,
    "total_ratings": 100,
    "heat_score": 100,
    "recommend_score": 80
  },
  {
    "id": 29,
    "name": "中共一大纪念馆",
    "address": "上海市黄浦区兴业路76号",
    "longitude": 121.4737,
    "latitude": 31.2208,
    "category": 3,
    "categoryName": "会议旧址",
    "brief_intro": "中国共产党第一次全国代表大会会址，中国革命的起源地",
    "historical_background": "1921年7月，中国共产党第一次全国代表大会在此召开，宣告中国共产党正式成立。这是开天辟地的大事变，中国革命面貌从此焕然一新。",
    "per_capita_consumption": 0,
    "business_hours": "09:00-17:00（周一闭馆）",
    "average_rating": 4.5,
    "total_ratings": 100,
    "heat_score": 100,
    "recommend_score": 80
  },
  {
    "id": 30,
    "name": "南湖革命纪念馆",
    "address": "浙江省嘉兴市南湖区烟雨路1号",
    "longitude": 120.7575,
    "latitude": 30.7536,
    "category": 1,
    "categoryName": "纪念馆",
    "brief_intro": "纪念中共一大在南湖红船上闭幕的历史事件",
    "historical_background": "1921年7月，中共一大因法租界巡捕袭扰，从上海转移到嘉兴南湖的一艘画舫上继续举行并胜利闭幕，庄严宣告了中国共产党的诞生。",
    "per_capita_consumption": 0,
    "business_hours": "08:30-17:00（周一闭馆）",
    "average_rating": 4.5,
    "total_ratings": 100,
    "heat_score": 100,
    "recommend_score": 80
  },
  {
    "id": 31,
    "name": "中共二大会址纪念馆",
    "address": "上海市静安区老成都北路7弄30号",
    "longitude": 121.4678,
    "latitude": 31.2304,
    "category": 3,
    "categoryName": "会议旧址",
    "brief_intro": "中国共产党第二次全国代表大会会址",
    "historical_background": "1922年7月，中共二大在此召开，首次提出反帝反封建的民主革命纲领，制定了中国共产党第一部党章。",
    "per_capita_consumption": 0,
    "business_hours": "09:00-16:30（周一闭馆）",
    "average_rating": 4.5,
    "total_ratings": 100,
    "heat_score": 100,
    "recommend_score": 80
  },
  {
    "id": 32,
    "name": "广州农民运动讲习所旧址",
    "address": "广东省广州市越秀区中山四路42号",
    "longitude": 113.2644,
    "latitude": 23.1291,
    "category": 3,
    "categoryName": "会议旧址",
    "brief_intro": "培养农民运动干部的重要场所",
    "historical_background": "1924-1926年，毛泽东等共产党人在这里主办了六届农民运动讲习所，培养了大批农民运动骨干，为中国革命奠定了重要的群众基础。",
    "per_capita_consumption": 0,
    "business_hours": "09:00-17:00（周一闭馆）",
    "average_rating": 4.5,
    "total_ratings": 100,
    "heat_score": 100,
    "recommend_score": 80
  },
  {
    "id": 33,
    "name": "安源路矿工人运动纪念馆",
    "address": "江西省萍乡市安源区安源镇",
    "longitude": 113.95,
    "latitude": 27.6167,
    "category": 1,
    "categoryName": "纪念馆",
    "brief_intro": "中国共产党领导工人运动的最早实践地之一",
    "historical_background": "1922年，毛泽东、李立三、刘少奇等在此领导了安源路矿工人大罢工，这是中国共产党第一次独立领导并取得完全胜利的工人斗争。",
    "per_capita_consumption": 0,
    "business_hours": "09:00-16:30（周一闭馆）",
    "average_rating": 4.5,
    "total_ratings": 100,
    "heat_score": 100,
    "recommend_score": 80
  },
  {
    "id": 34,
    "name": "京汉铁路总工会旧址",
    "address": "河南省郑州市二七区钱塘路",
    "longitude": 113.6253,
    "latitude": 34.7466,
    "category": 3,
    "categoryName": "会议旧址",
    "brief_intro": "京汉铁路工人大罢工指挥中心",
    "historical_background": "1923年2月，京汉铁路工人在此成立总工会，举行震惊中外的大罢工，虽遭血腥镇压，但显示了中国工人阶级的力量。",
    "per_capita_consumption": 0,
    "business_hours": "09:00-17:00（周一闭馆）",
    "average_rating": 4.5,
    "total_ratings": 100,
    "heat_score": 100,
    "recommend_score": 80
  },
  {
    "id": 35,
    "name": "上海四行仓库抗战纪念馆",
    "address": "上海市静安区光复路1号",
    "longitude": 121.4751,
    "latitude": 31.2401,
    "category": 1,
    "categoryName": "纪念馆",
    "brief_intro": "淞沪会战中八百壮士英勇抗战的遗址",
    "historical_background": "1937年淞沪会战期间，谢晋元率八百壮士在四行仓库孤军奋战四天四夜，粉碎了日军三个月灭亡中国的狂妄计划，极大鼓舞了全国军民的抗战决心。",
    "per_capita_consumption": 0,
    "business_hours": "09:00-16:30（周一闭馆）",
    "average_rating": 4.5,
    "total_ratings": 100,
    "heat_score": 100,
    "recommend_score": 80
  },
  {
    "id": 36,
    "name": "南京大屠杀纪念馆",
    "address": "江苏省南京市建邺区水西门大街418号",
    "longitude": 118.7506,
    "latitude": 32.0422,
    "category": 1,
    "categoryName": "纪念馆",
    "brief_intro": "纪念南京大屠杀惨案，铭记历史珍爱和平",
    "historical_background": "1937年12月，侵华日军在南京制造了惨绝人寰的大屠杀，30万同胞惨遭杀害。纪念馆通过大量史实揭露日军暴行，警示后人勿忘国耻。",
    "per_capita_consumption": 0,
    "business_hours": "08:30-16:30（周一闭馆）",
    "average_rating": 4.5,
    "total_ratings": 100,
    "heat_score": 100,
    "recommend_score": 80
  },
  {
    "id": 37,
    "name": "台儿庄大战纪念馆",
    "address": "山东省枣庄市台儿庄区沿河南路",
    "longitude": 117.735,
    "latitude": 34.5576,
    "category": 1,
    "categoryName": "纪念馆",
    "brief_intro": "纪念抗战初期台儿庄大捷",
    "historical_background": "1938年春的台儿庄战役是自抗战以来中国军队的重大胜利，歼敌万余人，极大鼓舞了全国军民的抗战信心。",
    "per_capita_consumption": 0,
    "business_hours": "08:30-17:00",
    "average_rating": 4.5,
    "total_ratings": 100,
    "heat_score": 100,
    "recommend_score": 80
  },
  {
    "id": 38,
    "name": "八路军太行纪念馆",
    "address": "山西省长治市武乡县太行街",
    "longitude": 112.8361,
    "latitude": 36.8333,
    "category": 1,
    "categoryName": "纪念馆",
    "brief_intro": "全面反映八路军抗战历史的大型纪念馆",
    "historical_background": "抗日战争时期，八路军在太行山区创建抗日根据地，开展了著名的百团大战等战役，为抗战胜利作出巨大贡献。",
    "per_capita_consumption": 0,
    "business_hours": "09:00-17:00（周一闭馆）",
    "average_rating": 4.5,
    "total_ratings": 100,
    "heat_score": 100,
    "recommend_score": 80
  },
  {
    "id": 39,
    "name": "新四军军部旧址",
    "address": "安徽省宣城市泾县云岭乡",
    "longitude": 118.411,
    "latitude": 30.6914,
    "category": 3,
    "categoryName": "会议旧址",
    "brief_intro": "新四军军部驻地旧址",
    "historical_background": "1938-1941年，新四军军部驻此，指挥华中抗日游击战争。1941年1月，皖南事变爆发，新四军遭受重大损失。",
    "per_capita_consumption": 0,
    "business_hours": "08:30-17:00",
    "average_rating": 4.5,
    "total_ratings": 100,
    "heat_score": 100,
    "recommend_score": 80
  },
  {
    "id": 40,
    "name": "皖南事变烈士陵园",
    "address": "安徽省宣城市泾县水西山路",
    "longitude": 118.4039,
    "latitude": 30.6844,
    "category": 2,
    "categoryName": "烈士陵园",
    "brief_intro": "纪念皖南事变中牺牲的新四军烈士",
    "historical_background": "1941年1月，皖南新四军9000余人在泾县茂林地区被国民党军8万余人包围，血战七昼夜，3000余人突出重围，4000余人被俘或失散，3000余人壮烈牺牲。",
    "per_capita_consumption": 0,
    "business_hours": "全天开放",
    "average_rating": 4.5,
    "total_ratings": 100,
    "heat_score": 100,
    "recommend_score": 80
  },
  {
    "id": 41,
    "name": "辽沈战役纪念馆",
    "address": "辽宁省锦州市凌河区北京路五段1号",
    "longitude": 121.14,
    "latitude": 41.11,
    "category": 1,
    "categoryName": "纪念馆",
    "brief_intro": "展示辽沈战役全过程的专题纪念馆",
    "historical_background": "1948年9-11月，东北野战军发起辽沈战役，歼灭国民党军47万余人，解放东北全境，为解放全中国奠定基础。",
    "per_capita_consumption": 0,
    "business_hours": "09:00-16:30（周一闭馆）",
    "average_rating": 4.5,
    "total_ratings": 100,
    "heat_score": 100,
    "recommend_score": 80
  },
  {
    "id": 42,
    "name": "淮海战役纪念馆",
    "address": "江苏省徐州市泉山区解放南路2号",
    "longitude": 117.1848,
    "latitude": 34.2221,
    "category": 1,
    "categoryName": "纪念馆",
    "brief_intro": "纪念淮海战役胜利的专题纪念馆",
    "historical_background": "1948年11月-1949年1月，华东、中原野战军在以徐州为中心的广大地区发起淮海战役，歼灭国民党军55万余人，为渡江作战创造了条件。",
    "per_capita_consumption": 0,
    "business_hours": "09:00-17:00（周一闭馆）",
    "average_rating": 4.5,
    "total_ratings": 100,
    "heat_score": 100,
    "recommend_score": 80
  },
  {
    "id": 43,
    "name": "平津战役纪念馆",
    "address": "天津市红桥区平津道8号",
    "longitude": 117.1346,
    "latitude": 39.1518,
    "category": 1,
    "categoryName": "纪念馆",
    "brief_intro": "纪念平津战役胜利的专题纪念馆",
    "historical_background": "1948年11月-1949年1月，东北野战军和华北军区部队发起平津战役，歼灭和改编国民党军52万余人，基本解放华北全境。",
    "per_capita_consumption": 0,
    "business_hours": "09:00-16:30（周一闭馆）",
    "average_rating": 4.5,
    "total_ratings": 100,
    "heat_score": 100,
    "recommend_score": 80
  },
  {
    "id": 44,
    "name": "渡江战役纪念馆",
    "address": "安徽省合肥市包河区云谷路299号",
    "longitude": 117.35,
    "latitude": 31.7333,
    "category": 1,
    "categoryName": "纪念馆",
    "brief_intro": "纪念百万雄师过大江的渡江战役",
    "historical_background": "1949年4月20日-6月2日，人民解放军百万大军发起渡江战役，突破长江天险，解放南京、上海等大城市，宣告国民党反动统治的覆灭。",
    "per_capita_consumption": 0,
    "business_hours": "09:00-17:00（周一闭馆）",
    "average_rating": 4.5,
    "total_ratings": 100,
    "heat_score": 100,
    "recommend_score": 80
  },
  {
    "id": 45,
    "name": "西柏坡纪念馆",
    "address": "河北省石家庄市平山县西柏坡镇",
    "longitude": 114.0294,
    "latitude": 38.3589,
    "category": 1,
    "categoryName": "纪念馆",
    "brief_intro": "中共中央最后一个农村指挥所",
    "historical_background": "1948年5月-1949年3月，中共中央移驻西柏坡，指挥了三大战役，召开了七届二中全会，描绘了新中国的蓝图。",
    "per_capita_consumption": 0,
    "business_hours": "08:30-17:30",
    "average_rating": 4.5,
    "total_ratings": 100,
    "heat_score": 100,
    "recommend_score": 80
  },
  {
    "id": 46,
    "name": "香山革命纪念馆",
    "address": "北京市海淀区买卖街40号",
    "longitude": 116.1934,
    "latitude": 39.9911,
    "category": 1,
    "categoryName": "纪念馆",
    "brief_intro": "中共中央'进京赶考'第一站",
    "historical_background": "1949年3月25日-9月21日，中共中央从西柏坡迁至香山，指挥了渡江战役，筹备了新政协，为新中国的成立作了充分准备。",
    "per_capita_consumption": 0,
    "business_hours": "09:00-16:00（周一闭馆）",
    "average_rating": 4.5,
    "total_ratings": 100,
    "heat_score": 100,
    "recommend_score": 80
  },
  {
    "id": 47,
    "name": "雨花台烈士陵园",
    "address": "江苏省南京市雨花台区雨花路215号",
    "longitude": 118.7628,
    "latitude": 31.9922,
    "category": 2,
    "categoryName": "烈士陵园",
    "brief_intro": "纪念新民主主义革命时期牺牲的雨花台烈士",
    "historical_background": "1927-1949年，近10万共产党人和革命志士在雨花台英勇就义。1950年建园，是全国规模最大的纪念性陵园之一。",
    "per_capita_consumption": 0,
    "business_hours": "08:00-17:00",
    "average_rating": 4.5,
    "total_ratings": 100,
    "heat_score": 100,
    "recommend_score": 80
  },
  {
    "id": 48,
    "name": "重庆歌乐山烈士陵园",
    "address": "重庆市沙坪坝区烈士墓政法村",
    "longitude": 106.4064,
    "latitude": 29.5633,
    "category": 2,
    "categoryName": "烈士陵园",
    "brief_intro": "纪念被国民党杀害的红岩英烈",
    "historical_background": "1949年11月27日，国民党特务在溃逃前夕，对关押在白公馆、渣滓洞的革命者进行大屠杀，300余人壮烈牺牲。",
    "per_capita_consumption": 0,
    "business_hours": "09:00-17:00",
    "average_rating": 4.5,
    "total_ratings": 100,
    "heat_score": 100,
    "recommend_score": 80
  },
  {
    "id": 49,
    "name": "双清别墅",
    "address": "北京市海淀区香山公园内",
    "longitude": 116.1934,
    "latitude": 39.9911,
    "category": 5,
    "categoryName": "名人故居",
    "brief_intro": "毛泽东在香山的居住地",
    "historical_background": "1949年3月25日，毛泽东等中央领导人进驻香山，双清别墅成为毛泽东同志的居住地，是筹建新中国的历史见证地。",
    "per_capita_consumption": 15,
    "business_hours": "06:00-18:00",
    "average_rating": 4.5,
    "total_ratings": 100,
    "heat_score": 100,
    "recommend_score": 80
  },
  {
    "id": 50,
    "name": "天安门广场",
    "address": "北京市东城区天安门广场",
    "longitude": 116.3975,
    "latitude": 39.9087,
    "category": 9,
    "categoryName": "其他纪念地",
    "brief_intro": "中华人民共和国成立的历史见证地",
    "historical_background": "1949年10月1日，毛泽东主席在天安门城楼庄严宣告中华人民共和国成立，标志着新民主主义革命的基本胜利。",
    "per_capita_consumption": 0,
    "business_hours": "05:00-22:00",
    "average_rating": 4.5,
    "total_ratings": 100,
    "heat_score": 100,
    "recommend_score": 80
  },
  {
    "id": 51,
    "name": "抗美援朝纪念馆",
    "address": "辽宁省丹东市振兴区山上街7号",
    "longitude": 124.3835,
    "latitude": 40.1258,
    "category": 1,
    "categoryName": "纪念馆",
    "brief_intro": "纪念抗美援朝战争的专题纪念馆",
    "historical_background": "1950-1953年，中国人民志愿军赴朝作战，与朝鲜军民并肩战斗，打败了以美国为首的联合国军，保卫了新中国的安全。",
    "per_capita_consumption": 0,
    "business_hours": "09:00-16:30（周一闭馆）",
    "average_rating": 4.5,
    "total_ratings": 100,
    "heat_score": 100,
    "recommend_score": 80
  },
  {
    "id": 52,
    "name": "雷锋纪念馆",
    "address": "辽宁省抚顺市望花区雷锋路东段61号",
    "longitude": 123.9115,
    "latitude": 41.8473,
    "category": 1,
    "categoryName": "纪念馆",
    "brief_intro": "纪念共产主义战士雷锋的专题纪念馆",
    "historical_background": "雷锋是新中国成立后涌现出的优秀共产主义战士，全心全意为人民服务的光辉典范，1962年因公殉职，年仅22岁。",
    "per_capita_consumption": 0,
    "business_hours": "09:00-16:00（周一闭馆）",
    "average_rating": 4.5,
    "total_ratings": 100,
    "heat_score": 100,
    "recommend_score": 80
  },
  {
    "id": 53,
    "name": "大庆油田历史陈列馆",
    "address": "黑龙江省大庆市萨尔图区中七路",
    "longitude": 125.1028,
    "latitude": 46.5892,
    "category": 8,
    "categoryName": "博物馆",
    "brief_intro": "展示大庆油田开发建设历史的专题馆",
    "historical_background": "1959年发现大庆油田，1960年开展石油大会战，铁人王进喜等老一辈石油工人铸就了'大庆精神'和'铁人精神'。",
    "per_capita_consumption": 0,
    "business_hours": "08:30-17:00",
    "average_rating": 4.5,
    "total_ratings": 100,
    "heat_score": 100,
    "recommend_score": 80
  },
  {
    "id": 54,
    "name": "铁人王进喜纪念馆",
    "address": "黑龙江省大庆市让胡路区中原路2号",
    "longitude": 124.8563,
    "latitude": 46.6524,
    "category": 1,
    "categoryName": "纪念馆",
    "brief_intro": "纪念'铁人'王进喜的专题纪念馆",
    "historical_background": "王进喜是大庆石油工人的杰出代表，'铁人精神'的化身，为我国石油工业发展作出了卓越贡献。",
    "per_capita_consumption": 0,
    "business_hours": "08:30-17:00（周一闭馆）",
    "average_rating": 4.5,
    "total_ratings": 100,
    "heat_score": 100,
    "recommend_score": 80
  },
  {
    "id": 55,
    "name": "两弹一星纪念馆",
    "address": "北京市海淀区怀柔区雁栖镇",
    "longitude": 116.6573,
    "latitude": 40.3616,
    "category": 1,
    "categoryName": "纪念馆",
    "brief_intro": "纪念'两弹一星'伟大成就的专题纪念馆",
    "historical_background": "1960-1970年代，我国在极端困难的条件下成功研制原子弹、氢弹和人造卫星，极大提升了国际地位和国防实力。",
    "per_capita_consumption": 30,
    "business_hours": "09:00-16:00（需预约）",
    "average_rating": 4.5,
    "total_ratings": 100,
    "heat_score": 100,
    "recommend_score": 80
  },
  {
    "id": 56,
    "name": "两弹城景区",
    "address": "四川省绵阳市梓潼县文昌镇",
    "longitude": 105.2278,
    "latitude": 31.6472,
    "category": 9,
    "categoryName": "其他纪念地",
    "brief_intro": "中国工程物理研究院旧址，'两弹一星'精神发源地",
    "historical_background": "1960年代，邓稼先等科学家在此研制核武器，成功研制出中国第一颗原子弹和氢弹，铸就了伟大的'两弹一星'精神。",
    "per_capita_consumption": 4000,
    "business_hours": "09:00-17:00",
    "average_rating": 4.5,
    "total_ratings": 100,
    "heat_score": 100,
    "recommend_score": 80
  },
  {
    "id": 57,
    "name": "上海毛泽东旧居",
    "address": "上海市静安区茂名北路120弄5-9号",
    "longitude": 121.4618,
    "latitude": 31.2289,
    "category": 5,
    "categoryName": "名人故居",
    "brief_intro": "毛泽东在上海的革命活动旧居",
    "historical_background": "1924年，毛泽东在上海工作期间居住于此，期间领导了上海的工人运动和革命活动。",
    "per_capita_consumption": 0,
    "business_hours": "09:00-16:00（周一闭馆）",
    "average_rating": 4.5,
    "total_ratings": 100,
    "heat_score": 100,
    "recommend_score": 80
  },
  {
    "id": 58,
    "name": "中山舰博物馆",
    "address": "湖北省武汉市江夏区金口街",
    "longitude": 114.3167,
    "latitude": 30.35,
    "category": 8,
    "categoryName": "博物馆",
    "brief_intro": "展示中山舰历史及孙中山革命活动",
    "historical_background": "中山舰见证了孙中山先生的革命历程和国共合作的历史，1925年孙中山逝世后，该舰被命名为中山舰以示纪念。",
    "per_capita_consumption": 0,
    "business_hours": "09:00-17:00（周一闭馆）",
    "average_rating": 4.5,
    "total_ratings": 100,
    "heat_score": 100,
    "recommend_score": 80
  },
  {
    "id": 59,
    "name": "北京大学红楼",
    "address": "北京市东城区五四大街29号",
    "longitude": 116.4058,
    "latitude": 39.9219,
    "category": 9,
    "categoryName": "其他纪念地",
    "brief_intro": "五四运动和新文化运动的重要活动场所",
    "historical_background": "1918年建成，曾是北京大学校部，陈独秀、李大钊、毛泽东等在此工作，是五四运动的策源地和中国共产党的重要发祥地之一。",
    "per_capita_consumption": 0,
    "business_hours": "09:00-16:00（周一闭馆）",
    "average_rating": 4.5,
    "total_ratings": 100,
    "heat_score": 100,
    "recommend_score": 80
  },
  {
    "id": 60,
    "name": "天津周恩来邓颖超纪念馆",
    "address": "天津市南开区水上公园西路9号",
    "longitude": 117.1625,
    "latitude": 39.0913,
    "category": 1,
    "categoryName": "纪念馆",
    "brief_intro": "周恩来、邓颖超生平事迹专题纪念馆",
    "historical_background": "周恩来、邓颖超是伟大的无产阶级革命家，为中国革命和建设事业奉献了毕生精力。纪念馆展示了他们从早期革命到建国后的光辉历程。",
    "per_capita_consumption": 0,
    "business_hours": "09:00-16:30（周一闭馆）",
    "average_rating": 4.5,
    "total_ratings": 100,
    "heat_score": 100,
    "recommend_score": 80
  },
  {
    "id": 61,
    "name": "秋收起义文家市会师旧址",
    "address": "湖南省浏阳市文家市镇",
    "longitude": 113.9434,
    "latitude": 28.0546,
    "category": 4,
    "categoryName": "战役遗址",
    "brief_intro": "秋收起义部队会师决策进军井冈山的地点",
    "historical_background": "1927年9月，毛泽东领导的秋收起义受挫后，在文家市召开前委会议，决定放弃攻打长沙，转向农村进军，开辟了农村包围城市的道路。",
    "per_capita_consumption": 0,
    "business_hours": "08:30-17:00",
    "average_rating": 4.5,
    "total_ratings": 100,
    "heat_score": 100,
    "recommend_score": 80
  },
  {
    "id": 62,
    "name": "三湾改编旧址",
    "address": "江西省永新县三湾乡",
    "longitude": 113.9667,
    "latitude": 26.9667,
    "category": 3,
    "categoryName": "会议旧址",
    "brief_intro": "毛泽东领导三湾改编确立党对军队绝对领导",
    "historical_background": "1927年9月，毛泽东在此进行了著名的三湾改编，确立了党对军队的绝对领导，建立了新型人民军队的重要原则。",
    "per_capita_consumption": 0,
    "business_hours": "08:30-17:00",
    "average_rating": 4.5,
    "total_ratings": 100,
    "heat_score": 100,
    "recommend_score": 80
  },
  {
    "id": 63,
    "name": "井冈山革命博物馆",
    "address": "江西省井冈山市茨坪红军南路5号",
    "longitude": 114.1667,
    "latitude": 26.5667,
    "category": 8,
    "categoryName": "博物馆",
    "brief_intro": "全面展示井冈山革命斗争历史的博物馆",
    "historical_background": "井冈山是中国革命的摇篮，1927年毛泽东在此建立第一个农村革命根据地，点燃了中国革命的星星之火。",
    "per_capita_consumption": 0,
    "business_hours": "08:30-17:00（周一闭馆）",
    "average_rating": 4.5,
    "total_ratings": 100,
    "heat_score": 100,
    "recommend_score": 80
  },
  {
    "id": 64,
    "name": "八一南昌起义纪念馆",
    "address": "江西省南昌市东湖区中山路380号",
    "longitude": 115.8921,
    "latitude": 28.6833,
    "category": 1,
    "categoryName": "纪念馆",
    "brief_intro": "南昌起义总指挥部旧址",
    "historical_background": "1927年8月1日，周恩来、贺龙、叶挺、朱德、刘伯承等在此领导发动南昌起义，打响了武装反抗国民党反动派的第一枪。",
    "per_capita_consumption": 0,
    "business_hours": "09:00-17:00（周一闭馆）",
    "average_rating": 4.5,
    "total_ratings": 100,
    "heat_score": 100,
    "recommend_score": 80
  },
  {
    "id": 65,
    "name": "广州起义纪念馆",
    "address": "广东省广州市越秀区起义路200号",
    "longitude": 113.2644,
    "latitude": 23.1291,
    "category": 1,
    "categoryName": "纪念馆",
    "brief_intro": "纪念1927年12月广州起义",
    "historical_background": "1927年12月11日，张太雷、叶挺、叶剑英等发动广州起义，建立广州苏维埃政府，是中国共产党在城市建立政权的首次尝试。",
    "per_capita_consumption": 0,
    "business_hours": "09:00-12:00, 13:00-16:30",
    "average_rating": 4.5,
    "total_ratings": 100,
    "heat_score": 100,
    "recommend_score": 80
  },
  {
    "id": 66,
    "name": "左右江革命根据地",
    "address": "广西百色市右江区解放街",
    "longitude": 106.6167,
    "latitude": 23.9,
    "category": 6,
    "categoryName": "革命根据地",
    "brief_intro": "邓小平领导的左右江革命根据地",
    "historical_background": "1929-1930年，邓小平、张云逸等发动百色起义、龙州起义，创建了中国工农红军第七、第八军和左右江革命根据地。",
    "per_capita_consumption": 0,
    "business_hours": "09:00-17:00",
    "average_rating": 4.5,
    "total_ratings": 100,
    "heat_score": 100,
    "recommend_score": 80
  },
  {
    "id": 67,
    "name": "中华苏维埃共和国临时中央政府大礼堂",
    "address": "江西省瑞金市叶坪乡",
    "longitude": 116.0333,
    "latitude": 25.8833,
    "category": 3,
    "categoryName": "会议旧址",
    "brief_intro": "中华苏维埃第一次全国代表大会会址",
    "historical_background": "1931年11月，中华苏维埃第一次全国代表大会在此召开，宣告中华苏维埃共和国临时中央政府成立，是中国共产党建立全国性政权的重要尝试。",
    "per_capita_consumption": 0,
    "business_hours": "08:30-17:30",
    "average_rating": 4.5,
    "total_ratings": 100,
    "heat_score": 100,
    "recommend_score": 80
  },
  {
    "id": 68,
    "name": "闽西革命历史博物馆",
    "address": "福建省龙岩市新罗区北环西路",
    "longitude": 117.0296,
    "latitude": 25.0911,
    "category": 8,
    "categoryName": "博物馆",
    "brief_intro": "展示闽西革命斗争历史",
    "historical_background": "闽西是中央苏区的重要组成部分，毛泽东、朱德等在此领导革命斗争，创造了'二十年红旗不倒'的奇迹。",
    "per_capita_consumption": 0,
    "business_hours": "09:00-17:00（周一闭馆）",
    "average_rating": 4.5,
    "total_ratings": 100,
    "heat_score": 100,
    "recommend_score": 80
  },
  {
    "id": 69,
    "name": "鄂豫皖苏区首府革命博物馆",
    "address": "河南省信阳市新县首府路",
    "longitude": 114.8333,
    "latitude": 31.6167,
    "category": 8,
    "categoryName": "博物馆",
    "brief_intro": "展示鄂豫皖苏区革命历史",
    "historical_background": "鄂豫皖苏区是仅次于中央苏区的第二大革命根据地，诞生了红四方面军等多支主力红军。",
    "per_capita_consumption": 0,
    "business_hours": "08:30-17:00",
    "average_rating": 4.5,
    "total_ratings": 100,
    "heat_score": 100,
    "recommend_score": 80
  },
  {
    "id": 70,
    "name": "于都中央红军长征出发地纪念馆",
    "address": "江西省赣州市于都县贡江镇",
    "longitude": 115.4167,
    "latitude": 25.95,
    "category": 1,
    "categoryName": "纪念馆",
    "brief_intro": "中央红军长征出发集结地",
    "historical_background": "1934年10月，中央红军主力8.6万余人从于都出发，开始了举世闻名的二万五千里长征。",
    "per_capita_consumption": 0,
    "business_hours": "08:30-17:00",
    "average_rating": 4.5,
    "total_ratings": 100,
    "heat_score": 100,
    "recommend_score": 80
  },
  {
    "id": 71,
    "name": "通道转兵纪念馆",
    "address": "湖南省怀化市通道侗族自治县",
    "longitude": 109.7833,
    "latitude": 26.1667,
    "category": 1,
    "categoryName": "纪念馆",
    "brief_intro": "记录长征途中通道转兵历史",
    "historical_background": "1934年12月，中央红军占领湖南通道县城，召开通道会议，采纳毛泽东建议，放弃去湘西与红二、六军团会合，改向贵州前进。",
    "per_capita_consumption": 0,
    "business_hours": "08:30-17:00",
    "average_rating": 4.5,
    "total_ratings": 100,
    "heat_score": 100,
    "recommend_score": 80
  },
  {
    "id": 72,
    "name": "黎平会议会址",
    "address": "贵州省黔东南州黎平县德凤镇",
    "longitude": 109.1333,
    "latitude": 26.2333,
    "category": 3,
    "categoryName": "会议旧址",
    "brief_intro": "长征途中的重要会议地点",
    "historical_background": "1934年12月18日，中共中央政治局在黎平召开会议，肯定了毛泽东的正确主张，为遵义会议的召开奠定了基础。",
    "per_capita_consumption": 0,
    "business_hours": "08:30-17:00",
    "average_rating": 4.5,
    "total_ratings": 100,
    "heat_score": 100,
    "recommend_score": 80
  },
  {
    "id": 73,
    "name": "猴场会议会址",
    "address": "贵州省黔南州瓮安县猴场镇",
    "longitude": 107.4833,
    "latitude": 27.05,
    "category": 3,
    "categoryName": "会议旧址",
    "brief_intro": "长征途中的猴场会议遗址",
    "historical_background": "1934年12月31日-1935年1月1日，中央政治局在此召开会议，重申黎平会议精神，为遵义会议作了思想上、政治上的准备。",
    "per_capita_consumption": 0,
    "business_hours": "09:00-17:00",
    "average_rating": 4.5,
    "total_ratings": 100,
    "heat_score": 100,
    "recommend_score": 80
  },
  {
    "id": 74,
    "name": "遵义会议纪念馆",
    "address": "贵州省遵义市红花岗区子尹路96号",
    "longitude": 106.927,
    "latitude": 27.73,
    "category": 1,
    "categoryName": "纪念馆",
    "brief_intro": "遵义会议会址，党的历史上生死攸关的转折点",
    "historical_background": "1935年1月，中共中央政治局在遵义召开扩大会议，确立了毛泽东在党和红军中的领导地位，挽救了党、挽救了红军、挽救了中国革命。",
    "per_capita_consumption": 0,
    "business_hours": "08:30-17:00（周一闭馆）",
    "average_rating": 4.5,
    "total_ratings": 100,
    "heat_score": 100,
    "recommend_score": 80
  },
  {
    "id": 75,
    "name": "娄山关红军战斗遗址",
    "address": "贵州省遵义市汇川区板桥镇",
    "longitude": 106.8542,
    "latitude": 27.9464,
    "category": 4,
    "categoryName": "战役遗址",
    "brief_intro": "长征途中娄山关战斗遗址",
    "historical_background": "1935年2月，红军在娄山关与国民党军激战，取得遵义会议后的第一个大胜仗，毛泽东写下《忆秦娥·娄山关》。",
    "per_capita_consumption": 0,
    "business_hours": "全天开放",
    "average_rating": 4.5,
    "total_ratings": 100,
    "heat_score": 100,
    "recommend_score": 80
  },
  {
    "id": 76,
    "name": "四渡赤水纪念馆",
    "address": "贵州省遵义市习水县土城镇",
    "longitude": 106.15,
    "latitude": 28.3333,
    "category": 1,
    "categoryName": "纪念馆",
    "brief_intro": "纪念四渡赤水战役",
    "historical_background": "1935年1-5月，中央红军在毛泽东指挥下，四渡赤水河，巧妙穿插于国民党重兵集团之间，粉碎了蒋介石围歼红军于川黔滇边境的企图。",
    "per_capita_consumption": 0,
    "business_hours": "09:00-17:00（周一闭馆）",
    "average_rating": 4.5,
    "total_ratings": 100,
    "heat_score": 100,
    "recommend_score": 80
  },
  {
    "id": 77,
    "name": "扎西会议纪念馆",
    "address": "云南省昭通市威信县扎西镇",
    "longitude": 105.05,
    "latitude": 27.8333,
    "category": 1,
    "categoryName": "纪念馆",
    "brief_intro": "扎西会议会址及纪念馆",
    "historical_background": "1935年2月，红军长征途经云南扎西，召开了中央政治局会议，作出了一系列重要决策，为长征胜利奠定了基础。",
    "per_capita_consumption": 0,
    "business_hours": "08:30-17:30",
    "average_rating": 4.5,
    "total_ratings": 100,
    "heat_score": 100,
    "recommend_score": 80
  },
  {
    "id": 78,
    "name": "强渡乌江渡口遗址",
    "address": "贵州省黔东南州瓮安县江界河镇",
    "longitude": 107.5833,
    "latitude": 27.3,
    "category": 4,
    "categoryName": "战役遗址",
    "brief_intro": "红军强渡乌江天险的渡口遗址",
    "historical_background": "1935年1月，红军在江界河、回龙场、茶山关等渡口强渡乌江，突破了国民党军设置的第四道封锁线。",
    "per_capita_consumption": 0,
    "business_hours": "全天开放",
    "average_rating": 4.5,
    "total_ratings": 100,
    "heat_score": 100,
    "recommend_score": 80
  },
  {
    "id": 79,
    "name": "红军强渡大渡河纪念馆",
    "address": "四川省雅安市石棉县安顺场镇",
    "longitude": 102.35,
    "latitude": 29.2667,
    "category": 1,
    "categoryName": "纪念馆",
    "brief_intro": "红军强渡大渡河历史纪念馆",
    "historical_background": "1935年5月，红军在安顺场强渡大渡河，17名勇士在枪林弹雨中成功渡河，为红军北上夺取泸定桥创造了条件。",
    "per_capita_consumption": 0,
    "business_hours": "08:30-17:00",
    "average_rating": 4.5,
    "total_ratings": 100,
    "heat_score": 100,
    "recommend_score": 80
  },
  {
    "id": 80,
    "name": "飞夺泸定桥纪念馆",
    "address": "四川省甘孜州泸定县泸桥镇",
    "longitude": 102.2333,
    "latitude": 29.9167,
    "category": 1,
    "categoryName": "纪念馆",
    "brief_intro": "红军飞夺泸定桥战斗纪念馆",
    "historical_background": "1935年5月29日，红军22名勇士冒着敌人火力，攀着铁索夺取泸定桥，粉碎了蒋介石围歼红军的企图。",
    "per_capita_consumption": 0,
    "business_hours": "09:00-17:00",
    "average_rating": 4.5,
    "total_ratings": 100,
    "heat_score": 100,
    "recommend_score": 80
  },
  {
    "id": 81,
    "name": "红军翻越夹金山纪念馆",
    "address": "四川省雅安市宝兴县硗碛藏族乡",
    "longitude": 102.6833,
    "latitude": 30.7167,
    "category": 1,
    "categoryName": "纪念馆",
    "brief_intro": "纪念红军翻越夹金山",
    "historical_background": "1935年6月，中央红军翻越海拔4000多米的夹金山，这是红军长征中翻越的第一座大雪山。",
    "per_capita_consumption": 0,
    "business_hours": "09:00-17:00",
    "average_rating": 4.5,
    "total_ratings": 100,
    "heat_score": 100,
    "recommend_score": 80
  },
  {
    "id": 82,
    "name": "两河口会议会址",
    "address": "四川省阿坝州小金县两河口镇",
    "longitude": 102.6667,
    "latitude": 31.25,
    "category": 3,
    "categoryName": "会议旧址",
    "brief_intro": "红军长征途中两河口会议遗址",
    "historical_background": "1935年6月26日，中共中央政治局在两河口召开会议，确定了红军北上的战略方针。",
    "per_capita_consumption": 0,
    "business_hours": "09:00-17:00",
    "average_rating": 4.5,
    "total_ratings": 100,
    "heat_score": 100,
    "recommend_score": 80
  },
  {
    "id": 83,
    "name": "巴西会议纪念馆",
    "address": "四川省阿坝州若尔盖县巴西镇",
    "longitude": 103.15,
    "latitude": 33.45,
    "category": 1,
    "categoryName": "纪念馆",
    "brief_intro": "巴西会议会址及纪念馆",
    "historical_background": "1935年9月，中共中央政治局在巴西召开紧急会议，批判了张国焘的分裂主义错误，坚持了北上的正确方针。",
    "per_capita_consumption": 0,
    "business_hours": "09:00-17:00",
    "average_rating": 4.5,
    "total_ratings": 100,
    "heat_score": 100,
    "recommend_score": 80
  },
  {
    "id": 84,
    "name": "俄界会议遗址",
    "address": "甘肃省甘南州迭部县达拉乡",
    "longitude": 103.2167,
    "latitude": 34.05,
    "category": 3,
    "categoryName": "会议旧址",
    "brief_intro": "俄界会议会址",
    "historical_background": "1935年9月12日，中共中央政治局在俄界召开会议，通过了《关于张国焘同志的错误的决定》。",
    "per_capita_consumption": 0,
    "business_hours": "全天开放",
    "average_rating": 4.5,
    "total_ratings": 100,
    "heat_score": 100,
    "recommend_score": 80
  },
  {
    "id": 85,
    "name": "腊子口战役遗址",
    "address": "甘肃省甘南州迭部县腊子口镇",
    "longitude": 103.2167,
    "latitude": 34.3,
    "category": 4,
    "categoryName": "战役遗址",
    "brief_intro": "红军长征腊子口战役遗址",
    "historical_background": "1935年9月，红军在腊子口与国民党军激战，最终突破天险腊子口，为北上陕北打开了通道。",
    "per_capita_consumption": 0,
    "business_hours": "全天开放",
    "average_rating": 4.5,
    "total_ratings": 100,
    "heat_score": 100,
    "recommend_score": 80
  },
  {
    "id": 86,
    "name": "哈达铺红军长征纪念馆",
    "address": "甘肃省陇南市宕昌县哈达铺镇",
    "longitude": 104.1333,
    "latitude": 34.0667,
    "category": 1,
    "categoryName": "纪念馆",
    "brief_intro": "红军长征哈达铺休整地纪念馆",
    "historical_background": "1935年9月，中央红军长征到达哈达铺，在此休整并得到了物资补充，毛泽东在这里作出了向陕北进军的决策。",
    "per_capita_consumption": 0,
    "business_hours": "08:30-17:30",
    "average_rating": 4.5,
    "total_ratings": 100,
    "heat_score": 100,
    "recommend_score": 80
  },
  {
    "id": 87,
    "name": "吴起镇革命旧址",
    "address": "陕西省延安市吴起县吴起镇",
    "longitude": 108.1833,
    "latitude": 36.9333,
    "category": 9,
    "categoryName": "其他纪念地",
    "brief_intro": "中央红军长征胜利到达吴起镇",
    "historical_background": "1935年10月19日，中央红军到达陕北吴起镇，与陕北红军会师，标志着红一方面军长征胜利结束。",
    "per_capita_consumption": 0,
    "business_hours": "08:30-17:30",
    "average_rating": 4.5,
    "total_ratings": 100,
    "heat_score": 100,
    "recommend_score": 80
  },
  {
    "id": 88,
    "name": "会宁红军长征胜利纪念馆",
    "address": "甘肃省白银市会宁县会师镇",
    "longitude": 105.05,
    "latitude": 35.6833,
    "category": 1,
    "categoryName": "纪念馆",
    "brief_intro": "红军三大主力会宁会师纪念馆",
    "historical_background": "1936年10月，红一、二、四方面军在会宁会师，标志着红军长征胜利结束，是中国革命史上的重大转折点。",
    "per_capita_consumption": 0,
    "business_hours": "08:30-17:30",
    "average_rating": 4.5,
    "total_ratings": 100,
    "heat_score": 100,
    "recommend_score": 80
  },
  {
    "id": 89,
    "name": "将台堡红军长征会师纪念园",
    "address": "宁夏固原市西吉县将台堡镇",
    "longitude": 105.7167,
    "latitude": 35.8667,
    "category": 9,
    "categoryName": "其他纪念地",
    "brief_intro": "红军长征将台堡会师纪念地",
    "historical_background": "1936年10月22日，红一、二方面军在将台堡会师，是红军长征最后一次会师。",
    "per_capita_consumption": 0,
    "business_hours": "全天开放",
    "average_rating": 4.5,
    "total_ratings": 100,
    "heat_score": 100,
    "recommend_score": 80
  },
  {
    "id": 90,
    "name": "百团大战纪念馆",
    "address": "山西省阳泉市狮脑山",
    "longitude": 113.5333,
    "latitude": 37.8667,
    "category": 1,
    "categoryName": "纪念馆",
    "brief_intro": "纪念百团大战的专题纪念馆",
    "historical_background": "1940年8月-1941年1月，八路军在华北发动百团大战，破坏日伪交通线，摧毁日伪据点，沉重打击了日军的'囚笼政策'。",
    "per_capita_consumption": 0,
    "business_hours": "09:00-17:00",
    "average_rating": 4.5,
    "total_ratings": 100,
    "heat_score": 100,
    "recommend_score": 80
  },
  {
    "id": 91,
    "name": "平型关大捷纪念馆",
    "address": "山西省忻州市繁峙县平型关村",
    "longitude": 113.6833,
    "latitude": 39.25,
    "category": 1,
    "categoryName": "纪念馆",
    "brief_intro": "八路军出师抗日第一个大胜仗",
    "historical_background": "1937年9月25日，八路军115师在平型关伏击日军，歼敌1000余人，击毁汽车100余辆，取得了全国抗战以来的第一个大胜利。",
    "per_capita_consumption": 0,
    "business_hours": "08:30-17:00",
    "average_rating": 4.5,
    "total_ratings": 100,
    "heat_score": 100,
    "recommend_score": 80
  },
  {
    "id": 92,
    "name": "狼牙山五勇士纪念馆",
    "address": "河北省保定市易县狼牙山镇",
    "longitude": 115.1667,
    "latitude": 39.1667,
    "category": 1,
    "categoryName": "纪念馆",
    "brief_intro": "狼牙山五壮士跳崖处纪念馆",
    "historical_background": "1941年9月，日军扫荡狼牙山，马宝玉等五名战士为掩护主力转移，将敌人引上绝路，弹尽粮绝后跳崖殉国，表现了崇高的民族气节。",
    "per_capita_consumption": 0,
    "business_hours": "08:00-17:00",
    "average_rating": 4.5,
    "total_ratings": 100,
    "heat_score": 100,
    "recommend_score": 80
  },
  {
    "id": 93,
    "name": "焦庄户地道战遗址纪念馆",
    "address": "北京市顺义区龙湾屯镇焦庄户村",
    "longitude": 116.8667,
    "latitude": 40.1667,
    "category": 1,
    "categoryName": "纪念馆",
    "brief_intro": "展示地道战形式的抗日遗址",
    "historical_background": "1943-1948年，焦庄户人民利用地道与日军进行斗争，形成了能打能藏、可攻可守的'地下长城'，是人民战争的光辉典范。",
    "per_capita_consumption": 0,
    "business_hours": "08:30-16:30",
    "average_rating": 4.5,
    "total_ratings": 100,
    "heat_score": 100,
    "recommend_score": 80
  },
  {
    "id": 94,
    "name": "冉庄地道战遗址",
    "address": "河北省保定市清苑区冉庄镇",
    "longitude": 115.3667,
    "latitude": 38.6333,
    "category": 9,
    "categoryName": "其他纪念地",
    "brief_intro": "保存完整的地道战遗址",
    "historical_background": "1942年，冉庄人民挖掘地道与日军斗争，形成了户户相连、村村相通的地道网，是平原地区人民战争的典范。",
    "per_capita_consumption": 0,
    "business_hours": "08:30-17:30",
    "average_rating": 4.5,
    "total_ratings": 100,
    "heat_score": 100,
    "recommend_score": 80
  },
  {
    "id": 95,
    "name": "彭雪枫纪念馆",
    "address": "河南省南阳市镇平县建设大道",
    "longitude": 112.2333,
    "latitude": 32.8667,
    "category": 1,
    "categoryName": "纪念馆",
    "brief_intro": "新四军四师师长彭雪枫纪念馆",
    "historical_background": "彭雪枫是杰出的军事家，1944年9月在河南夏邑八里庄战斗中英勇牺牲，年仅37岁。他指挥的新四军第四师在抗日战争中功勋卓著。",
    "per_capita_consumption": 0,
    "business_hours": "09:00-17:00（周一闭馆）",
    "average_rating": 4.5,
    "total_ratings": 100,
    "heat_score": 100,
    "recommend_score": 80
  },
  {
    "id": 96,
    "name": "杨靖宇将军纪念馆",
    "address": "河南省驻马店市确山县李湾村",
    "longitude": 114.0167,
    "latitude": 32.8333,
    "category": 1,
    "categoryName": "纪念馆",
    "brief_intro": "东北抗联第一路军总司令杨靖宇纪念馆",
    "historical_background": "杨靖宇是东北抗日联军的主要领导人，1940年2月在吉林濛江壮烈牺牲，日军解剖其遗体，发现胃中只有枯草、树皮和棉絮，令侵略者震撼。",
    "per_capita_consumption": 0,
    "business_hours": "09:00-17:00",
    "average_rating": 4.5,
    "total_ratings": 100,
    "heat_score": 100,
    "recommend_score": 80
  },
  {
    "id": 97,
    "name": "赵一曼纪念馆",
    "address": "四川省宜宾市翠屏区翠屏山",
    "longitude": 104.6167,
    "latitude": 28.7667,
    "category": 1,
    "categoryName": "纪念馆",
    "brief_intro": "抗日女英雄赵一曼纪念馆",
    "historical_background": "赵一曼是抗日女英雄，1936年在与日伪军作战中被俘，面对酷刑坚贞不屈，英勇就义，年仅31岁，展现了共产党员的钢铁意志。",
    "per_capita_consumption": 0,
    "business_hours": "09:00-17:00",
    "average_rating": 4.5,
    "total_ratings": 100,
    "heat_score": 100,
    "recommend_score": 80
  },
  {
    "id": 98,
    "name": "左权将军纪念馆",
    "address": "山西省晋中市左权县辽阳镇",
    "longitude": 113.3667,
    "latitude": 37.0667,
    "category": 1,
    "categoryName": "纪念馆",
    "brief_intro": "八路军副参谋长左权将军纪念地",
    "historical_background": "左权是八路军高级将领，1942年5月在山西辽县十字岭指挥反'扫荡'作战中壮烈牺牲，是抗日战争中牺牲的最高级别将领。",
    "per_capita_consumption": 0,
    "business_hours": "08:30-17:30",
    "average_rating": 4.5,
    "total_ratings": 100,
    "heat_score": 100,
    "recommend_score": 80
  },
  {
    "id": 99,
    "name": "新四军江南指挥部纪念馆",
    "address": "江苏省常州市溧阳市竹箦镇水西村",
    "longitude": 119.4167,
    "latitude": 31.5,
    "category": 1,
    "categoryName": "纪念馆",
    "brief_intro": "新四军江南指挥部旧址",
    "historical_background": "1939年11月，新四军江南指挥部在此成立，陈毅、粟裕在此指挥了黄桥战役等重要战斗，开辟了苏南抗日根据地。",
    "per_capita_consumption": 0,
    "business_hours": "08:30-16:30",
    "average_rating": 4.5,
    "total_ratings": 100,
    "heat_score": 100,
    "recommend_score": 80
  },
  {
    "id": 100,
    "name": "茅山新四军纪念馆",
    "address": "江苏省镇江市句容市茅山镇",
    "longitude": 119.2833,
    "latitude": 31.8333,
    "category": 1,
    "categoryName": "纪念馆",
    "brief_intro": "苏南抗日根据地纪念馆",
    "historical_background": "1938年夏，陈毅、粟裕率新四军第一、二支队挺进苏南敌后，建立茅山抗日根据地，是华中敌后抗战的重要基地。",
    "per_capita_consumption": 0,
    "business_hours": "08:30-17:00",
    "average_rating": 4.5,
    "total_ratings": 100,
    "heat_score": 100,
    "recommend_score": 80
  },
  {
    "id": 101,
    "name": "车桥战役纪念馆",
    "address": "江苏省淮安市淮安区车桥镇",
    "longitude": 119.2833,
    "latitude": 33.5,
    "category": 1,
    "categoryName": "纪念馆",
    "brief_intro": "新四军车桥战役纪念地",
    "historical_background": "1944年3月，新四军第一师发起车桥战役，歼灭日军465人、伪军483人，是华中敌后战场一次重要战役。",
    "per_capita_consumption": 0,
    "business_hours": "09:00-17:00",
    "average_rating": 4.5,
    "total_ratings": 100,
    "heat_score": 100,
    "recommend_score": 80
  },
  {
    "id": 102,
    "name": "刘老庄八十二烈士陵园",
    "address": "江苏省淮安市淮阴区刘老庄乡",
    "longitude": 119.0333,
    "latitude": 33.6167,
    "category": 2,
    "categoryName": "烈士陵园",
    "brief_intro": "纪念刘老庄连八十二烈士",
    "historical_background": "1943年3月18日，新四军第三师七旅十九团四连82名战士在淮阴刘老庄战斗中全部壮烈牺牲，阻击了1600余名日伪军的进攻。",
    "per_capita_consumption": 0,
    "business_hours": "全天开放",
    "average_rating": 4.5,
    "total_ratings": 100,
    "heat_score": 100,
    "recommend_score": 80
  },
  {
    "id": 103,
    "name": "黄花岗七十二烈士墓园",
    "address": "广东省广州市越秀区先烈中路79号",
    "longitude": 113.2833,
    "latitude": 23.1333,
    "category": 2,
    "categoryName": "烈士陵园",
    "brief_intro": "辛亥革命黄花岗起义烈士墓园",
    "historical_background": "1911年4月27日，孙中山领导的同盟会在广州发动起义，72名烈士壮烈牺牲，葬于黄花岗，是辛亥革命的重要历史见证。",
    "per_capita_consumption": 0,
    "business_hours": "06:00-21:00",
    "average_rating": 4.5,
    "total_ratings": 100,
    "heat_score": 100,
    "recommend_score": 80
  },
  {
    "id": 104,
    "name": "孟良崮战役纪念馆",
    "address": "山东省临沂市蒙阴县垛庄镇",
    "longitude": 118.1333,
    "latitude": 35.5667,
    "category": 1,
    "categoryName": "纪念馆",
    "brief_intro": "纪念孟良崮战役胜利",
    "historical_background": "1947年5月，华东野战军在孟良崮战役中全歼国民党军整编74师，击毙中将师长张灵甫，粉碎了国民党军对山东的重点进攻。",
    "per_capita_consumption": 0,
    "business_hours": "08:30-17:00",
    "average_rating": 4.5,
    "total_ratings": 100,
    "heat_score": 100,
    "recommend_score": 80
  },
  {
    "id": 105,
    "name": "莱芜战役纪念馆",
    "address": "山东省济南市莱芜区英雄路17号",
    "longitude": 117.6667,
    "latitude": 36.2,
    "category": 1,
    "categoryName": "纪念馆",
    "brief_intro": "纪念莱芜战役胜利",
    "historical_background": "1947年2月，华东野战军在莱芜地区歼灭国民党军5.6万余人，收复城市13座，粉碎了国民党军南北夹击的计划。",
    "per_capita_consumption": 0,
    "business_hours": "08:30-17:00",
    "average_rating": 4.5,
    "total_ratings": 100,
    "heat_score": 100,
    "recommend_score": 80
  },
  {
    "id": 106,
    "name": "石家庄解放纪念馆",
    "address": "河北省石家庄市桥西区解放广场",
    "longitude": 114.4667,
    "latitude": 38.0333,
    "category": 1,
    "categoryName": "纪念馆",
    "brief_intro": "纪念石家庄解放",
    "historical_background": "1947年11月，晋察冀野战军攻克石家庄，这是解放军攻克的第一座较大城市，为以后的城市攻坚战提供了宝贵经验。",
    "per_capita_consumption": 0,
    "business_hours": "09:00-17:00",
    "average_rating": 4.5,
    "total_ratings": 100,
    "heat_score": 100,
    "recommend_score": 80
  },
  {
    "id": 107,
    "name": "济南战役纪念馆",
    "address": "山东省济南市历城区英雄山路18号",
    "longitude": 117,
    "latitude": 36.65,
    "category": 1,
    "categoryName": "纪念馆",
    "brief_intro": "纪念济南战役胜利",
    "historical_background": "1948年9月，华东野战军发起济南战役，全歼守敌10万余人，活捉国民党山东省主席王耀武，揭开了战略决战的序幕。",
    "per_capita_consumption": 0,
    "business_hours": "09:00-17:00（周一闭馆）",
    "average_rating": 4.5,
    "total_ratings": 100,
    "heat_score": 100,
    "recommend_score": 80
  },
  {
    "id": 108,
    "name": "塔山阻击战纪念馆",
    "address": "辽宁省葫芦岛市连山区塔山乡",
    "longitude": 120.9167,
    "latitude": 40.8,
    "category": 1,
    "categoryName": "纪念馆",
    "brief_intro": "纪念塔山阻击战",
    "historical_background": "1948年10月，东北野战军第四纵队在塔山地区阻击国民党援军，激战六昼夜，保证了锦州战役的胜利。",
    "per_capita_consumption": 0,
    "business_hours": "09:00-16:30",
    "average_rating": 4.5,
    "total_ratings": 100,
    "heat_score": 100,
    "recommend_score": 80
  },
  {
    "id": 109,
    "name": "红旗渠纪念馆",
    "address": "河南省安阳市林州市红旗渠大道",
    "longitude": 113.8,
    "latitude": 36.0667,
    "category": 1,
    "categoryName": "纪念馆",
    "brief_intro": "纪念红旗渠精神",
    "historical_background": "1960-1969年，林县人民在太行山悬崖峭壁上修建了长达1500公里的红旗渠，解决了缺水问题，铸就了'自力更生、艰苦创业'的红旗渠精神。",
    "per_capita_consumption": 800,
    "business_hours": "08:00-18:00",
    "average_rating": 4.5,
    "total_ratings": 100,
    "heat_score": 100,
    "recommend_score": 80
  },
  {
    "id": 110,
    "name": "兰考焦裕禄纪念园",
    "address": "河南省开封市兰考县裕禄大道",
    "longitude": 114.8,
    "latitude": 34.8167,
    "category": 1,
    "categoryName": "纪念馆",
    "brief_intro": "纪念'县委书记的榜样'焦裕禄",
    "historical_background": "焦裕禄1962年担任兰考县委书记，带领全县人民治理风沙、盐碱、内涝，直至1964年病逝，被誉为'县委书记的榜样'。",
    "per_capita_consumption": 0,
    "business_hours": "08:30-17:30",
    "average_rating": 4.5,
    "total_ratings": 100,
    "heat_score": 100,
    "recommend_score": 80
  },
  {
    "id": 111,
    "name": "孔繁森同志纪念馆",
    "address": "山东省聊城市东昌府区繁森路1号",
    "longitude": 115.9833,
    "latitude": 36.4333,
    "category": 1,
    "categoryName": "纪念馆",
    "brief_intro": "纪念领导干部的楷模孔繁森",
    "historical_background": "孔繁森两次进藏工作，1994年因公殉职，被誉为'领导干部的楷模'，展现了党员干部的无私奉献精神。",
    "per_capita_consumption": 0,
    "business_hours": "08:30-17:30",
    "average_rating": 4.5,
    "total_ratings": 100,
    "heat_score": 100,
    "recommend_score": 80
  },
  {
    "id": 112,
    "name": "小岗村大包干纪念馆",
    "address": "安徽省滁州市凤阳县小溪河镇",
    "longitude": 117.5667,
    "latitude": 32.7167,
    "category": 1,
    "categoryName": "纪念馆",
    "brief_intro": "中国农村改革发源地",
    "historical_background": "1978年冬，小岗村18户农民按下红手印，实行'大包干'，拉开了中国农村改革的序幕，是中国改革开放的重要历史见证。",
    "per_capita_consumption": 500,
    "business_hours": "08:00-18:00",
    "average_rating": 4.5,
    "total_ratings": 100,
    "heat_score": 100,
    "recommend_score": 80
  },
  {
    "id": 113,
    "name": "深圳改革开放展览馆",
    "address": "广东省深圳市福田区福中路184号",
    "longitude": 114.05,
    "latitude": 22.55,
    "category": 8,
    "categoryName": "博物馆",
    "brief_intro": "展示深圳改革开放成就",
    "historical_background": "1979年，深圳成为经济特区，作为改革开放的窗口，创造了世界工业化、城市化、现代化史上的奇迹。",
    "per_capita_consumption": 0,
    "business_hours": "10:00-18:00（周一闭馆）",
    "average_rating": 4.5,
    "total_ratings": 100,
    "heat_score": 100,
    "recommend_score": 80
  },
  {
    "id": 114,
    "name": "济南党史馆",
    "address": "山东省济南市市中区经十路 Wickham",
    "longitude": 117.0249,
    "latitude": 36.6512,
    "category": 1,
    "categoryName": "纪念馆",
    "brief_intro": "山东早期党组织活动纪念馆",
    "historical_background": "展示1921-1927年山东党组织创建发展历程，王尽美、邓恩铭等革命先驱在此领导工人运动。",
    "per_capita_consumption": 0,
    "business_hours": "09:00-17:00",
    "average_rating": 4.5,
    "total_ratings": 100,
    "heat_score": 100,
    "recommend_score": 80
  },
  {
    "id": 115,
    "name": "中共三大会址纪念馆",
    "address": "广东省广州市越秀区恤孤院路3号",
    "longitude": 113.2854,
    "latitude": 23.1234,
    "category": 3,
    "categoryName": "会议旧址",
    "brief_intro": "中共三大会议会址",
    "historical_background": "1923年6月，中共三大在此召开，决定共产党员以个人身份加入国民党，实现第一次国共合作。",
    "per_capita_consumption": 0,
    "business_hours": "09:00-17:30",
    "average_rating": 4.5,
    "total_ratings": 100,
    "heat_score": 100,
    "recommend_score": 80
  },
  {
    "id": 116,
    "name": "中共四大会址纪念馆",
    "address": "上海市虹口区东宝兴路254弄28支弄8号",
    "longitude": 121.482,
    "latitude": 31.2609,
    "category": 3,
    "categoryName": "会议旧址",
    "brief_intro": "中共四大会议会址",
    "historical_background": "1925年1月，中共四大在此召开，提出了无产阶级在民主革命中的领导权问题和工农联盟问题。",
    "per_capita_consumption": 0,
    "business_hours": "09:00-16:30",
    "average_rating": 4.5,
    "total_ratings": 100,
    "heat_score": 100,
    "recommend_score": 80
  },
  {
    "id": 117,
    "name": "中共五大会址纪念馆",
    "address": "湖北省武汉市武昌区都府堤路20号",
    "longitude": 114.3006,
    "latitude": 30.5497,
    "category": 3,
    "categoryName": "会议旧址",
    "brief_intro": "中共五大会议会址",
    "historical_background": "1927年4-5月，中共五大在此召开，批评了陈独秀的右倾错误，但未能提出有效对策。",
    "per_capita_consumption": 0,
    "business_hours": "09:00-17:00",
    "average_rating": 4.5,
    "total_ratings": 100,
    "heat_score": 100,
    "recommend_score": 80
  },
  {
    "id": 118,
    "name": "省港大罢工纪念馆",
    "address": "广东省广州市越秀区东园横路3号",
    "longitude": 113.2654,
    "latitude": 23.1245,
    "category": 1,
    "categoryName": "纪念馆",
    "brief_intro": "纪念省港大罢工重要遗址",
    "historical_background": "1925-1926年省港大罢工期间，此为罢工委员会旧址，是早期工人运动的指挥中心。",
    "per_capita_consumption": 0,
    "business_hours": "09:00-17:00",
    "average_rating": 4.5,
    "total_ratings": 100,
    "heat_score": 100,
    "recommend_score": 80
  },
  {
    "id": 119,
    "name": "刘少奇同志故居",
    "address": "湖南省长沙市宁乡市花明楼镇",
    "longitude": 112.6628,
    "latitude": 28.0806,
    "category": 5,
    "categoryName": "名人故居",
    "brief_intro": "刘少奇诞生及早年生活地",
    "historical_background": "1898年刘少奇在此诞生，并在此度过童年和少年时代，后成为中国革命的重要领导人。",
    "per_capita_consumption": 0,
    "business_hours": "09:00-17:00",
    "average_rating": 4.5,
    "total_ratings": 100,
    "heat_score": 100,
    "recommend_score": 80
  },
  {
    "id": 120,
    "name": "任弼时同志故居",
    "address": "湖南省岳阳市汨罗市弼时镇",
    "longitude": 113.1833,
    "latitude": 28.5,
    "category": 5,
    "categoryName": "名人故居",
    "brief_intro": "任弼时诞生及早年生活地",
    "historical_background": "1904年任弼时在此诞生，是中共中央第一代领导集体重要成员，对党的建设作出重要贡献。",
    "per_capita_consumption": 0,
    "business_hours": "09:00-17:00",
    "average_rating": 4.5,
    "total_ratings": 100,
    "heat_score": 100,
    "recommend_score": 80
  },
  {
    "id": 121,
    "name": "李大钊故居",
    "address": "河北省唐山市乐亭县大黑坨村",
    "longitude": 118.9006,
    "latitude": 39.4285,
    "category": 5,
    "categoryName": "名人故居",
    "brief_intro": "李大钊诞生及成长地",
    "historical_background": "1889年李大钊在此诞生，是中国共产主义运动先驱，中国共产党主要创始人之一。",
    "per_capita_consumption": 0,
    "business_hours": "08:30-17:00",
    "average_rating": 4.5,
    "total_ratings": 100,
    "heat_score": 100,
    "recommend_score": 80
  },
  {
    "id": 122,
    "name": "陈独秀故居",
    "address": "安徽省安庆市怀宁县独秀山",
    "longitude": 116.8328,
    "latitude": 30.6985,
    "category": 5,
    "categoryName": "名人故居",
    "brief_intro": "陈独秀诞生地及早期活动地",
    "historical_background": "1879年陈独秀在此诞生，是新文化运动领袖、中国共产党主要创始人及早期领导人。",
    "per_capita_consumption": 0,
    "business_hours": "08:30-17:00",
    "average_rating": 4.5,
    "total_ratings": 100,
    "heat_score": 100,
    "recommend_score": 80
  },
  {
    "id": 123,
    "name": "武汉二七纪念馆",
    "address": "湖北省武汉市江岸区解放大道2499号",
    "longitude": 114.3167,
    "latitude": 30.6167,
    "category": 1,
    "categoryName": "纪念馆",
    "brief_intro": "纪念二七大罢工",
    "historical_background": "1923年2月，京汉铁路工人在武汉举行大罢工，遭血腥镇压，52名工人牺牲，是为二七大罢工。",
    "per_capita_consumption": 0,
    "business_hours": "08:30-17:00",
    "average_rating": 4.5,
    "total_ratings": 100,
    "heat_score": 100,
    "recommend_score": 80
  },
  {
    "id": 124,
    "name": "上海工人三次武装起义纪念地",
    "address": "上海市黄浦区陆家浜路",
    "longitude": 121.5006,
    "latitude": 31.2009,
    "category": 9,
    "categoryName": "其他纪念地",
    "brief_intro": "上海工人三次武装起义遗址",
    "historical_background": "1926-1927年，上海工人阶级在中国共产党领导下连续举行三次武装起义，推翻了北洋军阀在上海的统治。",
    "per_capita_consumption": 0,
    "business_hours": "全天开放",
    "average_rating": 4.5,
    "total_ratings": 100,
    "heat_score": 100,
    "recommend_score": 80
  },
  {
    "id": 125,
    "name": "广东农民运动讲习所旧址",
    "address": "广东省广州市越秀区中山四路42号",
    "longitude": 113.2644,
    "latitude": 23.1291,
    "category": 3,
    "categoryName": "会议旧址",
    "brief_intro": "培养农民运动骨干的讲习所",
    "historical_background": "1924-1927年，彭湃等共产党人举办六届农民运动讲习所，培养了大批农运骨干，推动广东农民运动发展。",
    "per_capita_consumption": 0,
    "business_hours": "09:00-17:00",
    "average_rating": 4.5,
    "total_ratings": 100,
    "heat_score": 100,
    "recommend_score": 80
  },
  {
    "id": 126,
    "name": "海陆丰苏维埃旧址",
    "address": "广东省汕尾市海丰县海城镇",
    "longitude": 115.3167,
    "latitude": 22.9667,
    "category": 6,
    "categoryName": "革命根据地",
    "brief_intro": "中国第一个县级苏维埃政权",
    "historical_background": "1927年11月，彭湃领导海陆丰农民起义，建立中国第一个县级苏维埃政权，开创农村革命根据地先河。",
    "per_capita_consumption": 0,
    "business_hours": "09:00-17:00",
    "average_rating": 4.5,
    "total_ratings": 100,
    "heat_score": 100,
    "recommend_score": 80
  },
  {
    "id": 127,
    "name": "南昌八一起义纪念馆",
    "address": "江西省南昌市中山路380号",
    "longitude": 115.8921,
    "latitude": 28.6833,
    "category": 1,
    "categoryName": "纪念馆",
    "brief_intro": "南昌起义总指挥部旧址",
    "historical_background": "1927年8月1日，周恩来、贺龙、叶挺、朱德、刘伯承等在此领导发动南昌起义，打响武装反抗第一枪。",
    "per_capita_consumption": 0,
    "business_hours": "09:00-17:00",
    "average_rating": 4.5,
    "total_ratings": 100,
    "heat_score": 100,
    "recommend_score": 80
  },
  {
    "id": 128,
    "name": "红安黄麻起义纪念馆",
    "address": "湖北省黄冈市红安县城关镇",
    "longitude": 114.6167,
    "latitude": 31.2833,
    "category": 1,
    "categoryName": "纪念馆",
    "brief_intro": "纪念黄麻起义及鄂豫皖苏区",
    "historical_background": "1927年11月，黄麻起义爆发，建立了黄安县农民政府和中国工农革命军鄂东军，是鄂豫皖苏区重要源头。",
    "per_capita_consumption": 0,
    "business_hours": "08:30-17:00",
    "average_rating": 4.5,
    "total_ratings": 100,
    "heat_score": 100,
    "recommend_score": 80
  },
  {
    "id": 129,
    "name": "洪湖湘鄂西革命根据地",
    "address": "湖北省荆州市洪湖市瞿家湾镇",
    "longitude": 113.4333,
    "latitude": 29.8167,
    "category": 6,
    "categoryName": "革命根据地",
    "brief_intro": "湘鄂西革命根据地首府",
    "historical_background": "1930-1932年，贺龙、周逸群在此创建湘鄂西革命根据地，是红军三大主力之一红二军团诞生地。",
    "per_capita_consumption": 0,
    "business_hours": "08:00-17:30",
    "average_rating": 4.5,
    "total_ratings": 100,
    "heat_score": 100,
    "recommend_score": 80
  },
  {
    "id": 130,
    "name": "百色起义纪念馆",
    "address": "广西壮族自治区百色市右江区",
    "longitude": 106.6167,
    "latitude": 23.9,
    "category": 1,
    "categoryName": "纪念馆",
    "brief_intro": "纪念百色起义及红七军",
    "historical_background": "1929年12月，邓小平、张云逸等发动百色起义，创建中国工农红军第七军和右江革命根据地。",
    "per_capita_consumption": 0,
    "business_hours": "09:00-17:00",
    "average_rating": 4.5,
    "total_ratings": 100,
    "heat_score": 100,
    "recommend_score": 80
  },
  {
    "id": 131,
    "name": "龙州起义纪念馆",
    "address": "广西壮族自治区崇左市龙州县",
    "longitude": 106.85,
    "latitude": 22.3333,
    "category": 1,
    "categoryName": "纪念馆",
    "brief_intro": "纪念龙州起义及红八军",
    "historical_background": "1930年2月，邓小平、李明瑞等发动龙州起义，创建中国工农红军第八军和左江革命根据地。",
    "per_capita_consumption": 0,
    "business_hours": "08:30-17:30",
    "average_rating": 4.5,
    "total_ratings": 100,
    "heat_score": 100,
    "recommend_score": 80
  },
  {
    "id": 132,
    "name": "闽西革命历史博物馆",
    "address": "福建省龙岩市新罗区北环西路",
    "longitude": 117.0296,
    "latitude": 25.0911,
    "category": 8,
    "categoryName": "博物馆",
    "brief_intro": "闽西革命斗争历史专题馆",
    "historical_background": "闽西是中央苏区重要组成部分，毛泽东在此创建革命根据地，诞生了红四军等重要武装力量。",
    "per_capita_consumption": 0,
    "business_hours": "09:00-17:00",
    "average_rating": 4.5,
    "total_ratings": 100,
    "heat_score": 100,
    "recommend_score": 80
  },
  {
    "id": 133,
    "name": "古田会议纪念馆",
    "address": "福建省龙岩市上杭县古田镇",
    "longitude": 116.8167,
    "latitude": 25.2167,
    "category": 1,
    "categoryName": "纪念馆",
    "brief_intro": "古田会议会址及纪念馆",
    "historical_background": "1929年12月，红四军在此召开第九次党代会，确立了思想建党、政治建军的根本原则。",
    "per_capita_consumption": 0,
    "business_hours": "08:00-17:30",
    "average_rating": 4.5,
    "total_ratings": 100,
    "heat_score": 100,
    "recommend_score": 80
  },
  {
    "id": 134,
    "name": "才溪乡调查纪念馆",
    "address": "福建省龙岩市上杭县才溪镇",
    "longitude": 116.5833,
    "latitude": 25.2333,
    "category": 1,
    "categoryName": "纪念馆",
    "brief_intro": "毛泽东才溪乡调查旧址",
    "historical_background": "1933年11月，毛泽东在此进行深入社会调查，写下《才溪乡调查》，树立了深入群众、调查研究的典范。",
    "per_capita_consumption": 0,
    "business_hours": "08:30-17:30",
    "average_rating": 4.5,
    "total_ratings": 100,
    "heat_score": 100,
    "recommend_score": 80
  },
  {
    "id": 135,
    "name": "瑞金中央革命根据地纪念馆",
    "address": "江西省瑞金市象湖镇",
    "longitude": 116.0333,
    "latitude": 25.85,
    "category": 1,
    "categoryName": "纪念馆",
    "brief_intro": "中央革命根据地历史博物馆",
    "historical_background": "瑞金是中央革命根据地中心和中华苏维埃共和国首都，被称为'共和国的摇篮'。",
    "per_capita_consumption": 0,
    "business_hours": "08:30-17:30",
    "average_rating": 4.5,
    "total_ratings": 100,
    "heat_score": 100,
    "recommend_score": 80
  },
  {
    "id": 136,
    "name": "叶坪革命旧址群",
    "address": "江西省瑞金市叶坪乡叶坪村",
    "longitude": 116.0417,
    "latitude": 25.8833,
    "category": 6,
    "categoryName": "革命根据地",
    "brief_intro": "中华苏维埃第一次全国代表大会会址",
    "historical_background": "1931年11月，中华苏维埃第一次全国代表大会在此召开，宣告中华苏维埃共和国临时中央政府成立。",
    "per_capita_consumption": 0,
    "business_hours": "08:30-17:30",
    "average_rating": 4.5,
    "total_ratings": 100,
    "heat_score": 100,
    "recommend_score": 80
  },
  {
    "id": 137,
    "name": "沙洲坝革命旧址群",
    "address": "江西省瑞金市沙洲坝镇",
    "longitude": 116.0167,
    "latitude": 25.8333,
    "category": 6,
    "categoryName": "革命根据地",
    "brief_intro": "中央执行委员会旧址",
    "historical_background": "1933-1934年，中华苏维埃共和国中央执行委员会驻此，毛泽东曾在此办公居住。",
    "per_capita_consumption": 0,
    "business_hours": "08:30-17:30",
    "average_rating": 4.5,
    "total_ratings": 100,
    "heat_score": 100,
    "recommend_score": 80
  },
  {
    "id": 138,
    "name": "中华苏维埃第二次全国代表大会会址",
    "address": "江西省瑞金市沙洲坝镇老茶亭村",
    "longitude": 116.0167,
    "latitude": 25.8333,
    "category": 3,
    "categoryName": "会议旧址",
    "brief_intro": "二苏大会址",
    "historical_background": "1934年1月，中华苏维埃第二次全国代表大会在此召开，选举产生了新的中央执行委员会。",
    "per_capita_consumption": 0,
    "business_hours": "08:30-17:30",
    "average_rating": 4.5,
    "total_ratings": 100,
    "heat_score": 100,
    "recommend_score": 80
  },
  {
    "id": 139,
    "name": "长汀革命旧址群",
    "address": "福建省龙岩市长汀县汀州镇",
    "longitude": 116.35,
    "latitude": 25.8333,
    "category": 6,
    "categoryName": "革命根据地",
    "brief_intro": "中央苏区经济文化中心",
    "historical_background": "长汀是中央苏区的经济文化中心，被誉为'红色小上海'，中华苏维埃福建省苏维埃政府设于此。",
    "per_capita_consumption": 0,
    "business_hours": "08:30-17:30",
    "average_rating": 4.5,
    "total_ratings": 100,
    "heat_score": 100,
    "recommend_score": 80
  },
  {
    "id": 140,
    "name": "闽北革命历史纪念馆",
    "address": "福建省南平市武夷山市列宁公园",
    "longitude": 118.0333,
    "latitude": 27.75,
    "category": 8,
    "categoryName": "博物馆",
    "brief_intro": "闽北革命斗争史专题馆",
    "historical_background": "闽北是福建最早建立党组织的地区之一，创建了闽北红军和革命根据地，坚持了三年游击战争。",
    "per_capita_consumption": 0,
    "business_hours": "09:00-17:00",
    "average_rating": 4.5,
    "total_ratings": 100,
    "heat_score": 100,
    "recommend_score": 80
  },
  {
    "id": 141,
    "name": "湘赣革命纪念馆",
    "address": "江西省吉安市永新县禾川镇",
    "longitude": 114.2167,
    "latitude": 26.95,
    "category": 8,
    "categoryName": "博物馆",
    "brief_intro": "湘赣革命根据地史专题馆",
    "historical_background": "湘赣革命根据地是中央苏区重要屏障，任弼时、萧克等在此领导斗争，有力地配合了中央苏区反'围剿'。",
    "per_capita_consumption": 0,
    "business_hours": "08:30-17:30",
    "average_rating": 4.5,
    "total_ratings": 100,
    "heat_score": 100,
    "recommend_score": 80
  },
  {
    "id": 142,
    "name": "湘鄂赣革命纪念馆",
    "address": "湖南省岳阳市平江县",
    "longitude": 113.5833,
    "latitude": 28.7,
    "category": 8,
    "categoryName": "博物馆",
    "brief_intro": "湘鄂赣革命根据地史专题馆",
    "historical_background": "湘鄂赣边是秋收起义重要区域，建立了湘鄂赣革命根据地，红三军团在此诞生。",
    "per_capita_consumption": 0,
    "business_hours": "09:00-17:00",
    "average_rating": 4.5,
    "total_ratings": 100,
    "heat_score": 100,
    "recommend_score": 80
  },
  {
    "id": 143,
    "name": "川陕革命根据地红军烈士陵园",
    "address": "四川省巴中市通江县",
    "longitude": 107.25,
    "latitude": 31.9167,
    "category": 2,
    "categoryName": "烈士陵园",
    "brief_intro": "红军烈士集墓",
    "historical_background": "红四方面军创建川陕革命根据地期间，2万余名红军将士长眠于此，是全国最大红军烈士陵园。",
    "per_capita_consumption": 0,
    "business_hours": "08:30-17:30",
    "average_rating": 4.5,
    "total_ratings": 100,
    "heat_score": 100,
    "recommend_score": 80
  },
  {
    "id": 144,
    "name": "川陕革命根据地博物馆",
    "address": "四川省巴中市巴州区城南街",
    "longitude": 106.77,
    "latitude": 31.86,
    "category": 8,
    "categoryName": "博物馆",
    "brief_intro": "川陕苏区历史专题馆",
    "historical_background": "川陕革命根据地是中华苏维埃第二大区域，红四方面军在此发展壮大，为长征作出重要贡献。",
    "per_capita_consumption": 0,
    "business_hours": "09:00-17:00",
    "average_rating": 4.5,
    "total_ratings": 100,
    "heat_score": 100,
    "recommend_score": 80
  },
  {
    "id": 145,
    "name": "红二十五军长征出发地",
    "address": "河南省信阳市罗山县铁铺镇",
    "longitude": 114.6333,
    "latitude": 31.6833,
    "category": 9,
    "categoryName": "其他纪念地",
    "brief_intro": "红二十五军长征出发集结地",
    "historical_background": "1934年11月，红二十五军2980余人从罗山何家冲出发开始长征，是第一支到达陕北的红军队伍。",
    "per_capita_consumption": 0,
    "business_hours": "全天开放",
    "average_rating": 4.5,
    "total_ratings": 100,
    "heat_score": 100,
    "recommend_score": 80
  },
  {
    "id": 146,
    "name": "方志敏纪念馆",
    "address": "江西省上饶市弋阳县弋江镇",
    "longitude": 117.4333,
    "latitude": 28.3833,
    "category": 1,
    "categoryName": "纪念馆",
    "brief_intro": "方志敏烈士纪念馆",
    "historical_background": "方志敏是闽浙皖赣革命根据地创建人，1935年不幸被俘，在狱中写下《可爱的中国》等不朽篇章。",
    "per_capita_consumption": 0,
    "business_hours": "08:30-17:30",
    "average_rating": 4.5,
    "total_ratings": 100,
    "heat_score": 100,
    "recommend_score": 80
  },
  {
    "id": 147,
    "name": "寻乌调查纪念馆",
    "address": "江西省赣州市寻乌县长宁镇",
    "longitude": 115.65,
    "latitude": 24.95,
    "category": 1,
    "categoryName": "纪念馆",
    "brief_intro": "毛泽东寻乌调查旧址",
    "historical_background": "1930年5月，毛泽东在此进行深入社会调查，写下《寻乌调查》和《反对本本主义》，提出'没有调查就没有发言权'。",
    "per_capita_consumption": 0,
    "business_hours": "08:30-17:30",
    "average_rating": 4.5,
    "total_ratings": 100,
    "heat_score": 100,
    "recommend_score": 80
  },
  {
    "id": 148,
    "name": "宁都起义纪念馆",
    "address": "江西省赣州市宁都县梅江镇",
    "longitude": 116.0167,
    "latitude": 26.4667,
    "category": 1,
    "categoryName": "纪念馆",
    "brief_intro": "纪念宁都起义",
    "historical_background": "1931年12月，国民党第二十六路军1.7万余人在宁都起义，加入红军，编为红五军团。",
    "per_capita_consumption": 0,
    "business_hours": "09:00-17:00",
    "average_rating": 4.5,
    "total_ratings": 100,
    "heat_score": 100,
    "recommend_score": 80
  },
  {
    "id": 149,
    "name": "黄陂战役遗址",
    "address": "江西省抚州市宜黄县黄陂镇",
    "longitude": 116.15,
    "latitude": 27.2833,
    "category": 4,
    "categoryName": "战役遗址",
    "brief_intro": "红军黄陂战役遗址",
    "historical_background": "1933年2月，红军在黄陂地区歼灭国民党军52师、59师，俘敌师长李明、陈时骥，取得第四次反'围剿'重大胜利。",
    "per_capita_consumption": 0,
    "business_hours": "全天开放",
    "average_rating": 4.5,
    "total_ratings": 100,
    "heat_score": 100,
    "recommend_score": 80
  },
  {
    "id": 150,
    "name": "广昌保卫战遗址",
    "address": "江西省抚州市广昌县旴江镇",
    "longitude": 116.3167,
    "latitude": 26.8333,
    "category": 4,
    "categoryName": "战役遗址",
    "brief_intro": "红军广昌保卫战遗址",
    "historical_background": "1934年4月，红军在广昌与国民党军展开阵地战，虽浴血奋战但因'左'倾错误指挥而失利，是长征前重要战役。",
    "per_capita_consumption": 0,
    "business_hours": "全天开放",
    "average_rating": 4.5,
    "total_ratings": 100,
    "heat_score": 100,
    "recommend_score": 80
  },
  {
    "id": 151,
    "name": "红军突破第三道封锁线旧址",
    "address": "湖南省郴州市宜章县",
    "longitude": 112.95,
    "latitude": 25.4,
    "category": 4,
    "categoryName": "战役遗址",
    "brief_intro": "红军长征突破第三道封锁线",
    "historical_background": "1934年11月，红军在宜章突破国民党军第三道封锁线，为继续西进创造了条件。",
    "per_capita_consumption": 0,
    "business_hours": "全天开放",
    "average_rating": 4.5,
    "total_ratings": 100,
    "heat_score": 100,
    "recommend_score": 80
  },
  {
    "id": 152,
    "name": "湘江战役新圩阻击战遗址",
    "address": "广西壮族自治区桂林市灌阳县",
    "longitude": 111.15,
    "latitude": 25.5,
    "category": 4,
    "categoryName": "战役遗址",
    "brief_intro": "红军长征湘江战役重要战场",
    "historical_background": "1934年11月，红三军团在此阻击桂军，掩护中央纵队渡过湘江，战斗异常惨烈。",
    "per_capita_consumption": 0,
    "business_hours": "全天开放",
    "average_rating": 4.5,
    "total_ratings": 100,
    "heat_score": 100,
    "recommend_score": 80
  },
  {
    "id": 153,
    "name": "湘江战役脚山铺阻击战遗址",
    "address": "广西壮族自治区桂林市全州县",
    "longitude": 111.0667,
    "latitude": 25.9333,
    "category": 4,
    "categoryName": "战役遗址",
    "brief_intro": "湘江战役主要阻击战遗址",
    "historical_background": "1934年11月底，红一军团在此与湘军激战，掩护中央纵队过江，是湘江战役关键战场。",
    "per_capita_consumption": 0,
    "business_hours": "全天开放",
    "average_rating": 4.5,
    "total_ratings": 100,
    "heat_score": 100,
    "recommend_score": 80
  },
  {
    "id": 154,
    "name": "老山界战斗遗址",
    "address": "广西壮族自治区桂林市兴安县",
    "longitude": 110.6667,
    "latitude": 26.1667,
    "category": 4,
    "categoryName": "战役遗址",
    "brief_intro": "红军长征翻越老山界遗址",
    "historical_background": "1934年12月，红军翻越长征途中第一座高山老山界，老山界是越城岭山脉的中段部分。",
    "per_capita_consumption": 0,
    "business_hours": "全天开放",
    "average_rating": 4.5,
    "total_ratings": 100,
    "heat_score": 100,
    "recommend_score": 80
  },
  {
    "id": 155,
    "name": "红军长征过雪山纪念馆",
    "address": "四川省阿坝藏族羌族自治州黑水县",
    "longitude": 103.35,
    "latitude": 32.0667,
    "category": 1,
    "categoryName": "纪念馆",
    "brief_intro": "红军长征翻越雪山群纪念馆",
    "historical_background": "1935年6-7月，红军先后翻越夹金山、梦笔山、长板山、打鼓山、拖罗岗等五座雪山。",
    "per_capita_consumption": 0,
    "business_hours": "08:30-17:30",
    "average_rating": 4.5,
    "total_ratings": 100,
    "heat_score": 100,
    "recommend_score": 80
  },
  {
    "id": 156,
    "name": "红军长征过草地纪念碑",
    "address": "四川省阿坝藏族羌族自治州若尔盖县",
    "longitude": 102.9667,
    "latitude": 33.5667,
    "category": 7,
    "categoryName": "纪念碑塔",
    "brief_intro": "红军长征穿越草地纪念碑",
    "historical_background": "1935年8月，红军穿越面积约500万公顷的松潘草地，经历了长征途中最艰苦的行军。",
    "per_capita_consumption": 0,
    "business_hours": "全天开放",
    "average_rating": 4.5,
    "total_ratings": 100,
    "heat_score": 100,
    "recommend_score": 80
  },
  {
    "id": 157,
    "name": "毛尔盖会议会址",
    "address": "四川省阿坝藏族羌族自治州松潘县毛尔盖镇",
    "longitude": 103.0833,
    "latitude": 32.75,
    "category": 3,
    "categoryName": "会议旧址",
    "brief_intro": "红军长征毛尔盖会议遗址",
    "historical_background": "1935年8月，中共中央政治局在此召开会议，重申北上战略方针，批判张国焘西进错误。",
    "per_capita_consumption": 0,
    "business_hours": "全天开放",
    "average_rating": 4.5,
    "total_ratings": 100,
    "heat_score": 100,
    "recommend_score": 80
  },
  {
    "id": 158,
    "name": "包座战役遗址",
    "address": "四川省阿坝藏族羌族自治州若尔盖县包座乡",
    "longitude": 103.5833,
    "latitude": 33.9167,
    "category": 4,
    "categoryName": "战役遗址",
    "brief_intro": "红军包座战役遗址",
    "historical_background": "1935年8月，红军在包座歼灭国民党军49师，打开北上通道，粉碎了张国焘借口堵敌阻挠北上的阴谋。",
    "per_capita_consumption": 0,
    "business_hours": "全天开放",
    "average_rating": 4.5,
    "total_ratings": 100,
    "heat_score": 100,
    "recommend_score": 80
  },
  {
    "id": 159,
    "name": "六盘山红军长征纪念馆",
    "address": "宁夏回族自治区固原市隆德县",
    "longitude": 106.25,
    "latitude": 35.7,
    "category": 1,
    "categoryName": "纪念馆",
    "brief_intro": "红军长征翻越六盘山纪念馆",
    "historical_background": "1935年10月，中央红军翻越六盘山，毛泽东写下《清平乐·六盘山》，标志着长征即将胜利结束。",
    "per_capita_consumption": 0,
    "business_hours": "08:30-17:30",
    "average_rating": 4.5,
    "total_ratings": 100,
    "heat_score": 100,
    "recommend_score": 80
  },
  {
    "id": 160,
    "name": "榜罗镇会议会址",
    "address": "甘肃省定西市通渭县榜罗镇",
    "longitude": 105.25,
    "latitude": 35.1833,
    "category": 3,
    "categoryName": "会议旧址",
    "brief_intro": "红军长征榜罗镇会议会址",
    "historical_background": "1935年9月，中共中央政治局常委会议在此召开，最终决定落脚陕北，是长征路上的重要决策地。",
    "per_capita_consumption": 0,
    "business_hours": "08:30-17:30",
    "average_rating": 4.5,
    "total_ratings": 100,
    "heat_score": 100,
    "recommend_score": 80
  },
  {
    "id": 161,
    "name": "通渭会师广场",
    "address": "甘肃省定西市通渭县平襄镇",
    "longitude": 105.25,
    "latitude": 35.2167,
    "category": 9,
    "categoryName": "其他纪念地",
    "brief_intro": "红军长征通渭会师地",
    "historical_background": "1935年9月，红一方面军到达通渭，与先期到达的红二十五军会合，为长征胜利奠定基础。",
    "per_capita_consumption": 0,
    "business_hours": "全天开放",
    "average_rating": 4.5,
    "total_ratings": 100,
    "heat_score": 100,
    "recommend_score": 80
  },
  {
    "id": 162,
    "name": "红军长征胜利景园",
    "address": "甘肃省白银市会宁县枝阳街",
    "longitude": 105.05,
    "latitude": 35.6833,
    "category": 9,
    "categoryName": "其他纪念地",
    "brief_intro": "红军长征胜利会师纪念园",
    "historical_background": "以会宁红军长征胜利会师旧址为核心，全面展示红军长征历史和胜利会师的伟大意义。",
    "per_capita_consumption": 0,
    "business_hours": "08:00-18:00",
    "average_rating": 4.5,
    "total_ratings": 100,
    "heat_score": 100,
    "recommend_score": 80
  },
  {
    "id": 163,
    "name": "将台堡红军长征会师纪念园",
    "address": "宁夏回族自治区固原市西吉县将台堡镇",
    "longitude": 105.7167,
    "latitude": 35.8667,
    "category": 9,
    "categoryName": "其他纪念地",
    "brief_intro": "红一、二方面军将台堡会师地",
    "historical_background": "1936年10月22日，红一、二方面军在将台堡会师，标志着红军三大主力胜利会师，长征结束。",
    "per_capita_consumption": 0,
    "business_hours": "全天开放",
    "average_rating": 4.5,
    "total_ratings": 100,
    "heat_score": 100,
    "recommend_score": 80
  },
  {
    "id": 164,
    "name": "红军西征纪念馆",
    "address": "宁夏回族自治区吴忠市同心县",
    "longitude": 105.9167,
    "latitude": 36.9833,
    "category": 1,
    "categoryName": "纪念馆",
    "brief_intro": "红军西征历史纪念馆",
    "historical_background": "1936年5月，红军发起西征战役，迎接红二、四方面军北上，为三大主力会师创造条件。",
    "per_capita_consumption": 0,
    "business_hours": "09:00-17:00",
    "average_rating": 4.5,
    "total_ratings": 100,
    "heat_score": 100,
    "recommend_score": 80
  },
  {
    "id": 165,
    "name": "中国人民抗日战争纪念馆",
    "address": "北京市丰台区卢沟桥畔宛平城内",
    "longitude": 116.2126,
    "latitude": 39.8493,
    "category": 1,
    "categoryName": "纪念馆",
    "brief_intro": "全面反映抗战历史的国家一级博物馆",
    "historical_background": "1987年建成，展示1931-1945年中国人民抗日战争历史，是国家级抗战纪念设施。",
    "per_capita_consumption": 0,
    "business_hours": "09:00-16:30（周一闭馆）",
    "average_rating": 4.5,
    "total_ratings": 100,
    "heat_score": 100,
    "recommend_score": 80
  },
  {
    "id": 166,
    "name": "九一八历史博物馆",
    "address": "辽宁省沈阳市大东区望花南街46号",
    "longitude": 123.464,
    "latitude": 41.8228,
    "category": 1,
    "categoryName": "纪念馆",
    "brief_intro": "纪念九一八事变专题馆",
    "historical_background": "1931年9月18日，日本关东军制造柳条湖事件，炮轰北大营，侵占沈阳，开始了长达14年的侵华战争。",
    "per_capita_consumption": 0,
    "business_hours": "09:00-17:00（周一闭馆）",
    "average_rating": 4.5,
    "total_ratings": 100,
    "heat_score": 100,
    "recommend_score": 80
  },
  {
    "id": 167,
    "name": "东北抗联博物馆",
    "address": "黑龙江省哈尔滨市南岗区一曼街243号",
    "longitude": 126.6167,
    "latitude": 45.75,
    "category": 8,
    "categoryName": "博物馆",
    "brief_intro": "东北抗日联军斗争史专题馆",
    "historical_background": "1931-1945年，东北抗日联军在白山黑水间坚持抗战14年，牵制日军76万，歼敌18万。",
    "per_capita_consumption": 0,
    "business_hours": "09:00-16:00（周一闭馆）",
    "average_rating": 4.5,
    "total_ratings": 100,
    "heat_score": 100,
    "recommend_score": 80
  },
  {
    "id": 168,
    "name": "赵一曼烈士纪念馆",
    "address": "四川省宜宾市翠屏山翠屏书院",
    "longitude": 104.6167,
    "latitude": 28.7667,
    "category": 1,
    "categoryName": "纪念馆",
    "brief_intro": "抗日女英雄赵一曼纪念馆",
    "historical_background": "赵一曼是东北抗日联军第三军二团政委，1936年8月英勇就义，年仅31岁，留下'未惜头颅新故国，甘将热血沃中华'的豪迈诗句。",
    "per_capita_consumption": 0,
    "business_hours": "09:00-17:00",
    "average_rating": 4.5,
    "total_ratings": 100,
    "heat_score": 100,
    "recommend_score": 80
  },
  {
    "id": 169,
    "name": "八女投江纪念馆",
    "address": "黑龙江省牡丹江市林口县刁翎镇",
    "longitude": 130.25,
    "latitude": 45.8333,
    "category": 1,
    "categoryName": "纪念馆",
    "brief_intro": "纪念八位抗联女战士",
    "historical_background": "1938年10月，东北抗联八名女战士为掩护部队突围，弹尽粮绝后毅然投入乌斯浑河，壮烈殉国，最大23岁，最小13岁。",
    "per_capita_consumption": 0,
    "business_hours": "09:00-16:30",
    "average_rating": 4.5,
    "total_ratings": 100,
    "heat_score": 100,
    "recommend_score": 80
  },
  {
    "id": 170,
    "name": "杨靖宇将军殉国地",
    "address": "吉林省白山市靖宇县三道崴子",
    "longitude": 126.8,
    "latitude": 42.3833,
    "category": 9,
    "categoryName": "其他纪念地",
    "brief_intro": "杨靖宇将军最后战斗地",
    "historical_background": "1940年2月23日，杨靖宇在濛江保安村三道崴子与日军战斗中壮烈牺牲，日军解剖其遗体发现胃中只有枯草、树皮和棉絮。",
    "per_capita_consumption": 0,
    "business_hours": "全天开放",
    "average_rating": 4.5,
    "total_ratings": 100,
    "heat_score": 100,
    "recommend_score": 80
  },
  {
    "id": 171,
    "name": "赵尚志纪念馆",
    "address": "辽宁省朝阳市朝阳县尚志乡",
    "longitude": 120.3167,
    "latitude": 41.4333,
    "category": 1,
    "categoryName": "纪念馆",
    "brief_intro": "东北抗联将领赵尚志纪念馆",
    "historical_background": "赵尚志是东北抗日联军第三军军长，1942年2月遭特务偷袭重伤被俘，英勇不屈壮烈牺牲，年仅34岁。",
    "per_capita_consumption": 0,
    "business_hours": "08:30-17:00",
    "average_rating": 4.5,
    "total_ratings": 100,
    "heat_score": 100,
    "recommend_score": 80
  },
  {
    "id": 172,
    "name": "李兆麟将军纪念馆",
    "address": "黑龙江省哈尔滨市道里区兆麟街88号",
    "longitude": 126.6167,
    "latitude": 45.75,
    "category": 1,
    "categoryName": "纪念馆",
    "brief_intro": "东北抗联第三路军总指挥李兆麟纪念馆",
    "historical_background": "李兆麟是东北抗联第三路军总指挥，1946年被国民党特务暗杀，留下《露营之歌》传世。",
    "per_capita_consumption": 0,
    "business_hours": "09:00-16:00",
    "average_rating": 4.5,
    "total_ratings": 100,
    "heat_score": 100,
    "recommend_score": 80
  },
  {
    "id": 173,
    "name": "抗日山烈士陵园",
    "address": "江苏省连云港市赣榆区班庄镇",
    "longitude": 119.15,
    "latitude": 35.2333,
    "category": 2,
    "categoryName": "烈士陵园",
    "brief_intro": "滨海地区抗日烈士纪念地",
    "historical_background": "1941-1944年，滨海抗日军民为悼念抗日先烈而建，安葬着1800余名烈士，是中国唯一一座抗日山。",
    "per_capita_consumption": 0,
    "business_hours": "08:00-17:30",
    "average_rating": 4.5,
    "total_ratings": 100,
    "heat_score": 100,
    "recommend_score": 80
  },
  {
    "id": 174,
    "name": "台儿庄大战遗址公园",
    "address": "山东省枣庄市台儿庄区沿河南路",
    "longitude": 117.735,
    "latitude": 34.5576,
    "category": 4,
    "categoryName": "战役遗址",
    "brief_intro": "台儿庄大战历史遗址",
    "historical_background": "1938年3-4月，中国军队在台儿庄与日军激战，歼敌万余人，是抗战以来正面战场最大胜利。",
    "per_capita_consumption": 0,
    "business_hours": "08:30-17:30",
    "average_rating": 4.5,
    "total_ratings": 100,
    "heat_score": 100,
    "recommend_score": 80
  },
  {
    "id": 175,
    "name": "武汉抗战纪念园",
    "address": "湖北省武汉市武昌区武珞路1号",
    "longitude": 114.3167,
    "latitude": 30.5667,
    "category": 9,
    "categoryName": "其他纪念地",
    "brief_intro": "武汉会战纪念地",
    "historical_background": "1938年6-10月，中国军队与日军在武汉展开大规模会战，是抗战中时间最长、规模最广的战役。",
    "per_capita_consumption": 0,
    "business_hours": "09:00-17:00",
    "average_rating": 4.5,
    "total_ratings": 100,
    "heat_score": 100,
    "recommend_score": 80
  },
  {
    "id": 176,
    "name": "张自忠将军纪念馆",
    "address": "湖北省襄阳市宜城市板桥店镇",
    "longitude": 112.2667,
    "latitude": 31.6667,
    "category": 1,
    "categoryName": "纪念馆",
    "brief_intro": "抗日名将张自忠纪念馆",
    "historical_background": "1940年5月，张自忠将军在枣宜会战中壮烈殉国，是抗战期间牺牲的国民党军最高将领，周恩来称其为'全国军人的楷模'。",
    "per_capita_consumption": 0,
    "business_hours": "08:30-17:00",
    "average_rating": 4.5,
    "total_ratings": 100,
    "heat_score": 100,
    "recommend_score": 80
  },
  {
    "id": 177,
    "name": "戴安澜将军纪念馆",
    "address": "安徽省芜湖市无为县洪巷乡",
    "longitude": 117.6819,
    "latitude": 31.1586,
    "category": 1,
    "categoryName": "纪念馆",
    "brief_intro": "抗日名将戴安澜纪念馆",
    "historical_background": "1942年3月，戴安澜率中国远征军200师在缅甸同古战役中重创日军，5月殉国，年仅38岁。",
    "per_capita_consumption": 0,
    "business_hours": "09:00-17:00",
    "average_rating": 4.5,
    "total_ratings": 100,
    "heat_score": 100,
    "recommend_score": 80
  },
  {
    "id": 178,
    "name": "八百壮士纪念馆",
    "address": "上海市静安区光复路21号",
    "longitude": 121.4751,
    "latitude": 31.2401,
    "category": 1,
    "categoryName": "纪念馆",
    "brief_intro": "纪念四行仓库保卫战八百壮士",
    "historical_background": "1937年10月26日，谢晋元率八百壮士坚守四行仓库四天四夜，击毙日军200余人，伤无数，是淞沪会战最壮烈一幕。",
    "per_capita_consumption": 0,
    "business_hours": "09:00-17:00",
    "average_rating": 4.5,
    "total_ratings": 100,
    "heat_score": 100,
    "recommend_score": 80
  },
  {
    "id": 179,
    "name": "新四军军部旧址陈列馆",
    "address": "安徽省宣城市泾县云岭乡罗里村",
    "longitude": 118.411,
    "latitude": 30.6914,
    "category": 3,
    "categoryName": "会议旧址",
    "brief_intro": "新四军军部驻地旧址",
    "historical_background": "1938-1941年，新四军军部驻云岭近三年，指挥新四军在大江南北开展抗日游击战争，发展壮大了华中抗日力量。",
    "per_capita_consumption": 0,
    "business_hours": "08:30-17:00",
    "average_rating": 4.5,
    "total_ratings": 100,
    "heat_score": 100,
    "recommend_score": 80
  },
  {
    "id": 180,
    "name": "黄花塘新四军军部旧址",
    "address": "江苏省淮安市盱眙县黄花塘镇",
    "longitude": 118.5,
    "latitude": 32.9667,
    "category": 3,
    "categoryName": "会议旧址",
    "brief_intro": "新四军军部黄花塘驻地",
    "historical_background": "1943年1月-1945年9月，新四军军部移驻黄花塘，在此指挥抗日斗争直至抗战胜利。",
    "per_capita_consumption": 0,
    "business_hours": "08:30-17:30",
    "average_rating": 4.5,
    "total_ratings": 100,
    "heat_score": 100,
    "recommend_score": 80
  },
  {
    "id": 181,
    "name": "刘老庄八十二烈士陵园",
    "address": "江苏省淮安市淮阴区刘老庄乡",
    "longitude": 119.0333,
    "latitude": 33.6167,
    "category": 2,
    "categoryName": "烈士陵园",
    "brief_intro": "纪念刘老庄连八十二烈士",
    "historical_background": "1943年3月18日，新四军三师七旅十九团四连82名战士在此阻击日伪军，全部壮烈牺牲，展现了新四军铁军精神。",
    "per_capita_consumption": 0,
    "business_hours": "全天开放",
    "average_rating": 4.5,
    "total_ratings": 100,
    "heat_score": 100,
    "recommend_score": 80
  },
  {
    "id": 182,
    "name": "沙家浜革命历史纪念馆",
    "address": "江苏省苏州市常熟市沙家浜镇",
    "longitude": 120.8167,
    "latitude": 31.5667,
    "category": 1,
    "categoryName": "纪念馆",
    "brief_intro": "纪念新四军伤病员坚持斗争史",
    "historical_background": "抗战时期，新四军36名伤病员在阳澄湖畔沙家浜养伤，在群众掩护下坚持斗争，京剧《沙家浜》据此改编。",
    "per_capita_consumption": 0,
    "business_hours": "08:00-17:00",
    "average_rating": 4.5,
    "total_ratings": 100,
    "heat_score": 100,
    "recommend_score": 80
  },
  {
    "id": 183,
    "name": "冉庄地道战遗址",
    "address": "河北省保定市清苑区冉庄镇",
    "longitude": 115.3667,
    "latitude": 38.6333,
    "category": 9,
    "categoryName": "其他纪念地",
    "brief_intro": "保存完整的地道战遗址",
    "historical_background": "1942年，冉庄人民挖地道与日伪军斗争，形成户户相连、村村相通的地道网，歼敌2100余人。",
    "per_capita_consumption": 0,
    "business_hours": "08:30-17:30",
    "average_rating": 4.5,
    "total_ratings": 100,
    "heat_score": 100,
    "recommend_score": 80
  },
  {
    "id": 184,
    "name": "焦庄户地道战遗址纪念馆",
    "address": "北京市顺义区龙湾屯镇焦庄户村",
    "longitude": 116.8667,
    "latitude": 40.1667,
    "category": 1,
    "categoryName": "纪念馆",
    "brief_intro": "地道战模范村遗址",
    "historical_background": "1943-1948年，焦庄户人民挖地道23华里，利用地道作战150余次，毙伤俘敌130余人，被誉为'人民第一堡垒'。",
    "per_capita_consumption": 0,
    "business_hours": "08:30-16:30",
    "average_rating": 4.5,
    "total_ratings": 100,
    "heat_score": 100,
    "recommend_score": 80
  },
  {
    "id": 185,
    "name": "铁道游击队纪念馆",
    "address": "山东省枣庄市薛城区临山路",
    "longitude": 117.2667,
    "latitude": 34.8,
    "category": 1,
    "categoryName": "纪念馆",
    "brief_intro": "铁道游击队斗争史纪念馆",
    "historical_background": "1938-1945年，铁道游击队在枣庄一带破坏日军铁路交通，截断日军补给线，有力配合主力作战。",
    "per_capita_consumption": 0,
    "business_hours": "09:00-17:00",
    "average_rating": 4.5,
    "total_ratings": 100,
    "heat_score": 100,
    "recommend_score": 80
  },
  {
    "id": 186,
    "name": "台儿庄大战纪念馆",
    "address": "山东省枣庄市台儿庄区沿河南路",
    "longitude": 117.735,
    "latitude": 34.5576,
    "category": 1,
    "categoryName": "纪念馆",
    "brief_intro": "纪念台儿庄大捷",
    "historical_background": "1938年春，中国军队在台儿庄与日军激战，歼敌万余人，是抗战以来正面战场最大胜利。",
    "per_capita_consumption": 0,
    "business_hours": "08:30-17:00",
    "average_rating": 4.5,
    "total_ratings": 100,
    "heat_score": 100,
    "recommend_score": 80
  },
  {
    "id": 187,
    "name": "台儿庄大战遗址公园",
    "address": "山东省枣庄市台儿庄区顺河街",
    "longitude": 117.7333,
    "latitude": 34.5667,
    "category": 4,
    "categoryName": "战役遗址",
    "brief_intro": "台儿庄大战历史遗址",
    "historical_background": "保存了台儿庄大战时的53处战争遗址，再现了当年惨烈战斗场景。",
    "per_capita_consumption": 0,
    "business_hours": "08:30-17:30",
    "average_rating": 4.5,
    "total_ratings": 100,
    "heat_score": 100,
    "recommend_score": 80
  },
  {
    "id": 188,
    "name": "忻口战役遗址",
    "address": "山西省忻州市忻府区高城乡",
    "longitude": 112.7167,
    "latitude": 38.5,
    "category": 4,
    "categoryName": "战役遗址",
    "brief_intro": "忻口战役历史遗址",
    "historical_background": "1937年10月，国共两党军队在忻口联合作战，歼敌2万余人，是华北抗战中规模最大、战斗最激烈的一役。",
    "per_capita_consumption": 0,
    "business_hours": "全天开放",
    "average_rating": 4.5,
    "total_ratings": 100,
    "heat_score": 100,
    "recommend_score": 80
  },
  {
    "id": 189,
    "name": "太原会战纪念馆",
    "address": "山西省太原市小店区",
    "longitude": 112.55,
    "latitude": 37.8,
    "category": 1,
    "categoryName": "纪念馆",
    "brief_intro": "太原会战历史纪念地",
    "historical_background": "1937年9-11月，中日双方在太原展开会战，包括平型关伏击战等战斗，是华北抗战初期重要战役。",
    "per_capita_consumption": 0,
    "business_hours": "09:00-17:00",
    "average_rating": 4.5,
    "total_ratings": 100,
    "heat_score": 100,
    "recommend_score": 80
  },
  {
    "id": 190,
    "name": "阳明堡战斗遗址",
    "address": "山西省忻州市代县阳明堡镇",
    "longitude": 112.9333,
    "latitude": 39.0667,
    "category": 4,
    "categoryName": "战役遗址",
    "brief_intro": "夜袭阳明堡机场遗址",
    "historical_background": "1937年10月19日夜，八路军129师769团夜袭阳明堡机场，炸毁敌机24架，创造了步兵击毁飞机的战例。",
    "per_capita_consumption": 0,
    "business_hours": "全天开放",
    "average_rating": 4.5,
    "total_ratings": 100,
    "heat_score": 100,
    "recommend_score": 80
  },
  {
    "id": 191,
    "name": "七亘村战斗遗址",
    "address": "山西省阳泉市平定县东回镇",
    "longitude": 113.7833,
    "latitude": 37.6833,
    "category": 4,
    "categoryName": "战役遗址",
    "brief_intro": "刘伯承七亘村重叠设伏遗址",
    "historical_background": "1937年10月，刘伯承指挥386旅在七亘村三天内两次设伏，歼敌400余人，创造重叠设伏典范。",
    "per_capita_consumption": 0,
    "business_hours": "全天开放",
    "average_rating": 4.5,
    "total_ratings": 100,
    "heat_score": 100,
    "recommend_score": 80
  },
  {
    "id": 192,
    "name": "中原突围纪念馆",
    "address": "湖北省孝感市大悟县宣化店镇",
    "longitude": 114.3333,
    "latitude": 31.8333,
    "category": 1,
    "categoryName": "纪念馆",
    "brief_intro": "中原突围历史纪念馆",
    "historical_background": "1946年6月26日，中原解放军5万余人从这里突围，拉开了解放战争的序幕。",
    "per_capita_consumption": 0,
    "business_hours": "08:30-17:30",
    "average_rating": 4.5,
    "total_ratings": 100,
    "heat_score": 100,
    "recommend_score": 80
  },
  {
    "id": 193,
    "name": "苏中七战七捷纪念馆",
    "address": "江苏省南通市海安市长江中路",
    "longitude": 120.45,
    "latitude": 32.5333,
    "category": 1,
    "categoryName": "纪念馆",
    "brief_intro": "苏中战役七战七捷纪念地",
    "historical_background": "1946年7-8月，粟裕指挥华中野战军在苏中地区连续七战七捷，歼敌5.3万余人，开创了解放战争初期大量歼敌范例。",
    "per_capita_consumption": 0,
    "business_hours": "08:30-17:00",
    "average_rating": 4.5,
    "total_ratings": 100,
    "heat_score": 100,
    "recommend_score": 80
  },
  {
    "id": 194,
    "name": "孟良崮战役纪念馆",
    "address": "山东省临沂市蒙阴县垛庄镇",
    "longitude": 118.1333,
    "latitude": 35.5667,
    "category": 1,
    "categoryName": "纪念馆",
    "brief_intro": "孟良崮战役纪念地",
    "historical_background": "1947年5月，华东野战军在孟良崮全歼国民党军整编74师3.2万余人，击毙中将师长张灵甫，粉碎了国民党军重点进攻。",
    "per_capita_consumption": 0,
    "business_hours": "08:00-17:30",
    "average_rating": 4.5,
    "total_ratings": 100,
    "heat_score": 100,
    "recommend_score": 80
  },
  {
    "id": 195,
    "name": "莱芜战役纪念馆",
    "address": "山东省济南市莱芜区英雄路17号",
    "longitude": 117.6667,
    "latitude": 36.2,
    "category": 1,
    "categoryName": "纪念馆",
    "brief_intro": "莱芜战役全景画馆",
    "historical_background": "1947年2月，华东野战军在莱芜地区歼敌5.6万余人，俘国民党第二绥靖区副司令李仙洲，收复城市13座。",
    "per_capita_consumption": 0,
    "business_hours": "08:30-17:00",
    "average_rating": 4.5,
    "total_ratings": 100,
    "heat_score": 100,
    "recommend_score": 80
  },
  {
    "id": 196,
    "name": "石家庄解放纪念馆",
    "address": "河北省石家庄市桥西区解放广场",
    "longitude": 114.4667,
    "latitude": 38.0333,
    "category": 1,
    "categoryName": "纪念馆",
    "brief_intro": "攻克石家庄战役纪念馆",
    "historical_background": "1947年11月，晋察冀野战军攻克石家庄，歼敌2.4万余人，开创了解放军夺取大城市的先例。",
    "per_capita_consumption": 0,
    "business_hours": "09:00-17:00",
    "average_rating": 4.5,
    "total_ratings": 100,
    "heat_score": 100,
    "recommend_score": 80
  },
  {
    "id": 197,
    "name": "济南战役纪念馆",
    "address": "山东省济南市历城区英雄山路18号",
    "longitude": 117,
    "latitude": 36.65,
    "category": 1,
    "categoryName": "纪念馆",
    "brief_intro": "济南战役纪念地",
    "historical_background": "1948年9月，华东野战军攻克济南，歼敌10万余人，活捉国民党第二绥靖区司令王耀武，揭开战略决战序幕。",
    "per_capita_consumption": 0,
    "business_hours": "09:00-17:00",
    "average_rating": 4.5,
    "total_ratings": 100,
    "heat_score": 100,
    "recommend_score": 80
  },
  {
    "id": 198,
    "name": "辽沈战役纪念馆",
    "address": "辽宁省锦州市凌河区北京路五段1号",
    "longitude": 121.14,
    "latitude": 41.11,
    "category": 1,
    "categoryName": "纪念馆",
    "brief_intro": "辽沈战役全景画馆",
    "historical_background": "1948年9-11月，东北野战军歼敌47万余人，解放东北全境，为解放全中国奠定了物质基础。",
    "per_capita_consumption": 0,
    "business_hours": "09:00-16:30",
    "average_rating": 4.5,
    "total_ratings": 100,
    "heat_score": 100,
    "recommend_score": 80
  },
  {
    "id": 199,
    "name": "塔山阻击战纪念馆",
    "address": "辽宁省葫芦岛市连山区塔山乡",
    "longitude": 120.9167,
    "latitude": 40.8,
    "category": 1,
    "categoryName": "纪念馆",
    "brief_intro": "塔山阻击战纪念地",
    "historical_background": "1948年10月，东北野战军第四纵队在此阻击国民党援军，激战六昼夜，保证锦州战役胜利，'塔山精神'永垂史册。",
    "per_capita_consumption": 0,
    "business_hours": "09:00-16:30",
    "average_rating": 4.5,
    "total_ratings": 100,
    "heat_score": 100,
    "recommend_score": 80
  },
  {
    "id": 200,
    "name": "锦州战役纪念馆",
    "address": "辽宁省锦州市古塔区重庆路",
    "longitude": 121.15,
    "latitude": 41.1333,
    "category": 1,
    "categoryName": "纪念馆",
    "brief_intro": "锦州攻坚战纪念地",
    "historical_background": "1948年10月，东北野战军攻克锦州，歼敌10万余人，封闭了东北国民党军陆路退路，是辽沈战役关键一役。",
    "per_capita_consumption": 0,
    "business_hours": "09:00-16:30",
    "average_rating": 4.5,
    "total_ratings": 100,
    "heat_score": 100,
    "recommend_score": 80
  },
  {
    "id": 201,
    "name": "淮海战役纪念馆",
    "address": "江苏省徐州市泉山区解放南路2号",
    "longitude": 117.1848,
    "latitude": 34.2221,
    "category": 1,
    "categoryName": "纪念馆",
    "brief_intro": "淮海战役全景画馆",
    "historical_background": "1948年11月-1949年1月，华东、中原野战军歼敌55万余人，为渡江作战创造了条件，是解放战争战略决战最重要战役。",
    "per_capita_consumption": 0,
    "business_hours": "09:00-17:00",
    "average_rating": 4.5,
    "total_ratings": 100,
    "heat_score": 100,
    "recommend_score": 80
  },
  {
    "id": 202,
    "name": "碾庄圩战斗纪念馆",
    "address": "江苏省徐州市邳州市碾庄镇",
    "longitude": 117.8167,
    "latitude": 34.35,
    "category": 4,
    "categoryName": "战役遗址",
    "brief_intro": "淮海战役碾庄圩战斗遗址",
    "historical_background": "1948年11月，华东野战军在此全歼黄百韬兵团10万余人，淮海战役第一阶段取得胜利。",
    "per_capita_consumption": 0,
    "business_hours": "08:30-17:30",
    "average_rating": 4.5,
    "total_ratings": 100,
    "heat_score": 100,
    "recommend_score": 80
  },
  {
    "id": 203,
    "name": "双堆集烈士陵园",
    "address": "安徽省淮北市濉溪县双堆集镇",
    "longitude": 116.8333,
    "latitude": 33.4667,
    "category": 2,
    "categoryName": "烈士陵园",
    "brief_intro": "淮海战役双堆集歼灭战纪念地",
    "historical_background": "1948年12月，中原野战军在此全歼黄维兵团12万余人，是淮海战役第二阶段决定性胜利。",
    "per_capita_consumption": 0,
    "business_hours": "全天开放",
    "average_rating": 4.5,
    "total_ratings": 100,
    "heat_score": 100,
    "recommend_score": 80
  },
  {
    "id": 204,
    "name": "陈官庄烈士陵园",
    "address": "河南省商丘市永城市陈官庄乡",
    "longitude": 116.6167,
    "latitude": 33.9167,
    "category": 2,
    "categoryName": "烈士陵园",
    "brief_intro": "淮海战役陈官庄歼灭战纪念地",
    "historical_background": "1948年12月-1949年1月，华东野战军在此全歼杜聿明集团，俘敌17万余人，淮海战役胜利结束。",
    "per_capita_consumption": 0,
    "business_hours": "全天开放",
    "average_rating": 4.5,
    "total_ratings": 100,
    "heat_score": 100,
    "recommend_score": 80
  },
  {
    "id": 205,
    "name": "平津战役纪念馆",
    "address": "天津市红桥区平津道8号",
    "longitude": 117.1346,
    "latitude": 39.1518,
    "category": 1,
    "categoryName": "纪念馆",
    "brief_intro": "平津战役全景画馆",
    "historical_background": "1948年11月-1949年1月，东北野战军和华北军区部队歼敌和改编国民党军52万余人，基本解放华北全境。",
    "per_capita_consumption": 0,
    "business_hours": "09:00-16:30",
    "average_rating": 4.5,
    "total_ratings": 100,
    "heat_score": 100,
    "recommend_score": 80
  },
  {
    "id": 206,
    "name": "新保安战役遗址",
    "address": "河北省张家口市怀来县新保安镇",
    "longitude": 115.1333,
    "latitude": 40.4333,
    "category": 4,
    "categoryName": "战役遗址",
    "brief_intro": "平津战役新保安战斗遗址",
    "historical_background": "1948年12月，华北野战军在此全歼国民党军35军，军长郭景云自杀，为解放张家口、天津创造条件。",
    "per_capita_consumption": 0,
    "business_hours": "全天开放",
    "average_rating": 4.5,
    "total_ratings": 100,
    "heat_score": 100,
    "recommend_score": 80
  },
  {
    "id": 207,
    "name": "天津战役纪念馆",
    "address": "天津市红桥区子牙河南路",
    "longitude": 117.15,
    "latitude": 39.15,
    "category": 1,
    "categoryName": "纪念馆",
    "brief_intro": "天津攻坚战纪念地",
    "historical_background": "1949年1月，东北野战军29小时攻克天津，歼敌13万余人，创造了'天津方式'，促使北平和平解放。",
    "per_capita_consumption": 0,
    "business_hours": "09:00-16:30",
    "average_rating": 4.5,
    "total_ratings": 100,
    "heat_score": 100,
    "recommend_score": 80
  },
  {
    "id": 208,
    "name": "渡江战役纪念馆",
    "address": "安徽省合肥市包河区云谷路299号",
    "longitude": 117.35,
    "latitude": 31.7333,
    "category": 1,
    "categoryName": "纪念馆",
    "brief_intro": "渡江战役纪念地",
    "historical_background": "1949年4月20日-6月2日，百万雄师过大江，突破长江天险，解放南京、上海等大城市，宣告国民党反动统治覆灭。",
    "per_capita_consumption": 0,
    "business_hours": "09:00-17:00",
    "average_rating": 4.5,
    "total_ratings": 100,
    "heat_score": 100,
    "recommend_score": 80
  },
  {
    "id": 209,
    "name": "渡江胜利纪念碑",
    "address": "江苏省南京市鼓楼区热河路广场",
    "longitude": 118.7833,
    "latitude": 32.0833,
    "category": 7,
    "categoryName": "纪念碑塔",
    "brief_intro": "纪念南京渡江胜利",
    "historical_background": "1949年4月23日，人民解放军第三野战军第35军进占南京，宣告国民党22年统治终结。",
    "per_capita_consumption": 0,
    "business_hours": "全天开放",
    "average_rating": 4.5,
    "total_ratings": 100,
    "heat_score": 100,
    "recommend_score": 80
  },
  {
    "id": 210,
    "name": "上海战役纪念馆",
    "address": "上海市宝山区临江公园",
    "longitude": 121.5,
    "latitude": 31.4,
    "category": 1,
    "categoryName": "纪念馆",
    "brief_intro": "上海攻坚战纪念地",
    "historical_background": "1949年5月，第三野战军解放上海，歼敌15万余人，创造'瓷器店里打老鼠'奇迹，完整保全上海。",
    "per_capita_consumption": 0,
    "business_hours": "09:00-16:30",
    "average_rating": 4.5,
    "total_ratings": 100,
    "heat_score": 100,
    "recommend_score": 80
  },
  {
    "id": 211,
    "name": "太原解放纪念馆",
    "address": "山西省太原市万柏林区和平南路",
    "longitude": 112.5,
    "latitude": 37.8333,
    "category": 1,
    "categoryName": "纪念馆",
    "brief_intro": "太原战役纪念地",
    "historical_background": "1948年10月-1949年4月，太原战役历时6个月，歼敌13万余人，结束了阎锡山38年统治。",
    "per_capita_consumption": 0,
    "business_hours": "09:00-17:00",
    "average_rating": 4.5,
    "total_ratings": 100,
    "heat_score": 100,
    "recommend_score": 80
  },
  {
    "id": 212,
    "name": "兰州战役纪念馆",
    "address": "甘肃省兰州市七里河区华林坪",
    "longitude": 103.75,
    "latitude": 36.05,
    "category": 1,
    "categoryName": "纪念馆",
    "brief_intro": "兰州战役纪念地",
    "historical_background": "1949年8月，第一野战军攻克兰州，歼敌4万余人，打开进军新疆、宁夏的门户，西北解放大局已定。",
    "per_capita_consumption": 0,
    "business_hours": "09:00-17:00",
    "average_rating": 4.5,
    "total_ratings": 100,
    "heat_score": 100,
    "recommend_score": 80
  },
  {
    "id": 213,
    "name": "衡宝战役纪念馆",
    "address": "湖南省衡阳市祁东县黄土铺镇",
    "longitude": 111.9,
    "latitude": 26.95,
    "category": 1,
    "categoryName": "纪念馆",
    "brief_intro": "衡宝战役纪念地",
    "historical_background": "1949年9-10月，第四野战军在此歼灭白崇禧集团主力4.7万余人，为解放华南、西南创造了条件。",
    "per_capita_consumption": 0,
    "business_hours": "08:30-17:30",
    "average_rating": 4.5,
    "total_ratings": 100,
    "heat_score": 100,
    "recommend_score": 80
  },
  {
    "id": 214,
    "name": "抗美援朝纪念馆",
    "address": "辽宁省丹东市振兴区山上街7号",
    "longitude": 124.3835,
    "latitude": 40.1258,
    "category": 1,
    "categoryName": "纪念馆",
    "brief_intro": "抗美援朝战争专题馆",
    "historical_background": "1950-1953年，中国人民志愿军抗美援朝，与朝鲜军民并肩作战，打败了以美国为首的联合国军，保卫了新中国的安全。",
    "per_capita_consumption": 0,
    "business_hours": "09:00-16:30",
    "average_rating": 4.5,
    "total_ratings": 100,
    "heat_score": 100,
    "recommend_score": 80
  },
  {
    "id": 215,
    "name": "毛岸英纪念馆",
    "address": "湖南省湘潭市韶山市韶山乡",
    "longitude": 112.5167,
    "latitude": 27.9167,
    "category": 1,
    "categoryName": "纪念馆",
    "brief_intro": "毛岸英烈士纪念馆",
    "historical_background": "毛岸英是毛泽东长子，1950年主动请缨参加抗美援朝，同年11月25日在美军轰炸中壮烈牺牲，年仅28岁。",
    "per_capita_consumption": 0,
    "business_hours": "08:00-17:30",
    "average_rating": 4.5,
    "total_ratings": 100,
    "heat_score": 100,
    "recommend_score": 80
  },
  {
    "id": 216,
    "name": "邱少云纪念馆",
    "address": "重庆市铜梁区巴川镇",
    "longitude": 105.8667,
    "latitude": 29.8333,
    "category": 1,
    "categoryName": "纪念馆",
    "brief_intro": "邱少云烈士纪念馆",
    "historical_background": "1952年10月，邱少云在朝鲜战场执行潜伏任务时，为保证战斗胜利，烈火焚身纹丝不动，直至牺牲，荣获'一级战斗英雄'称号。",
    "per_capita_consumption": 0,
    "business_hours": "09:00-17:00",
    "average_rating": 4.5,
    "total_ratings": 100,
    "heat_score": 100,
    "recommend_score": 80
  },
  {
    "id": 217,
    "name": "黄继光纪念馆",
    "address": "四川省德阳市中江县凯江镇",
    "longitude": 104.6833,
    "latitude": 31.0333,
    "category": 1,
    "categoryName": "纪念馆",
    "brief_intro": "黄继光烈士纪念馆",
    "historical_background": "1952年10月，黄继光在上甘岭战役中，用胸膛堵住敌人机枪眼，为部队开辟前进道路，荣获'特级战斗英雄'称号。",
    "per_capita_consumption": 0,
    "business_hours": "09:00-17:00",
    "average_rating": 4.5,
    "total_ratings": 100,
    "heat_score": 100,
    "recommend_score": 80
  },
  {
    "id": 218,
    "name": "雷锋纪念馆",
    "address": "辽宁省抚顺市望花区雷锋路东段61号",
    "longitude": 123.9115,
    "latitude": 41.8473,
    "category": 1,
    "categoryName": "纪念馆",
    "brief_intro": "雷锋生平事迹专题馆",
    "historical_background": "雷锋1960年入伍，1962年因公殉职，年仅22岁。毛泽东题词'向雷锋同志学习'，雷锋精神成为社会主义道德楷模。",
    "per_capita_consumption": 0,
    "business_hours": "09:00-16:00",
    "average_rating": 4.5,
    "total_ratings": 100,
    "heat_score": 100,
    "recommend_score": 80
  },
  {
    "id": 219,
    "name": "王杰纪念馆",
    "address": "江苏省邳州市运河街道",
    "longitude": 117.95,
    "latitude": 34.3333,
    "category": 1,
    "categoryName": "纪念馆",
    "brief_intro": "王杰烈士纪念馆",
    "historical_background": "1965年7月，王杰在民兵训练时为掩护12名民兵，扑向意外爆炸的炸药包，壮烈牺牲，被誉为'一不怕苦、二不怕死'的共产主义战士。",
    "per_capita_consumption": 0,
    "business_hours": "09:00-17:00",
    "average_rating": 4.5,
    "total_ratings": 100,
    "heat_score": 100,
    "recommend_score": 80
  },
  {
    "id": 220,
    "name": "大庆油田历史陈列馆",
    "address": "黑龙江省大庆市萨尔图区中七路",
    "longitude": 125.1028,
    "latitude": 46.5892,
    "category": 8,
    "categoryName": "博物馆",
    "brief_intro": "大庆石油会战历史陈列馆",
    "historical_background": "1960-1963年，中国石油工人在极其艰苦条件下开发建设大庆油田，创造了'大庆精神'和'铁人精神'。",
    "per_capita_consumption": 0,
    "business_hours": "08:30-17:00",
    "average_rating": 4.5,
    "total_ratings": 100,
    "heat_score": 100,
    "recommend_score": 80
  },
  {
    "id": 221,
    "name": "铁人王进喜纪念馆",
    "address": "黑龙江省大庆市让胡路区中原路2号",
    "longitude": 124.8563,
    "latitude": 46.6524,
    "category": 1,
    "categoryName": "纪念馆",
    "brief_intro": "铁人王进喜纪念馆",
    "historical_background": "王进喜是'铁人'，带领1205钻井队创造年进尺10万米世界纪录，为我国石油工业发展作出卓越贡献。",
    "per_capita_consumption": 0,
    "business_hours": "08:30-17:00",
    "average_rating": 4.5,
    "total_ratings": 100,
    "heat_score": 100,
    "recommend_score": 80
  },
  {
    "id": 222,
    "name": "红旗渠纪念馆",
    "address": "河南省安阳市林州市红旗渠大道",
    "longitude": 113.8,
    "latitude": 36.0667,
    "category": 1,
    "categoryName": "纪念馆",
    "brief_intro": "红旗渠精神发源地",
    "historical_background": "1960-1969年，林县人民在太行山悬崖峭壁上修建红旗渠，解决了56万人用水问题，铸就了'自力更生、艰苦创业'的红旗渠精神。",
    "per_capita_consumption": 800,
    "business_hours": "08:00-18:00",
    "average_rating": 4.5,
    "total_ratings": 100,
    "heat_score": 100,
    "recommend_score": 80
  },
  {
    "id": 223,
    "name": "兰考焦裕禄纪念园",
    "address": "河南省开封市兰考县裕禄大道",
    "longitude": 114.8,
    "latitude": 34.8167,
    "category": 1,
    "categoryName": "纪念馆",
    "brief_intro": "县委书记的好榜样",
    "historical_background": "焦裕禄1962年任兰考县委书记，带领群众治理'三害'，1964年病逝，被誉为'县委书记的榜样'，铸就了焦裕禄精神。",
    "per_capita_consumption": 0,
    "business_hours": "08:30-17:30",
    "average_rating": 4.5,
    "total_ratings": 100,
    "heat_score": 100,
    "recommend_score": 80
  },
  {
    "id": 224,
    "name": "孔繁森同志纪念馆",
    "address": "山东省聊城市东昌府区繁森路1号",
    "longitude": 115.9833,
    "latitude": 36.4333,
    "category": 1,
    "categoryName": "纪念馆",
    "brief_intro": "领导干部的楷模",
    "historical_background": "孔繁森两次进藏工作，1994年因公殉职，被誉为'领导干部的楷模'，展现了党员干部的无私奉献精神。",
    "per_capita_consumption": 0,
    "business_hours": "08:30-17:30",
    "average_rating": 4.5,
    "total_ratings": 100,
    "heat_score": 100,
    "recommend_score": 80
  },
  {
    "id": 225,
    "name": "谷文昌纪念馆",
    "address": "福建省漳州市东山县赤山林场",
    "longitude": 117.4167,
    "latitude": 23.7,
    "category": 1,
    "categoryName": "纪念馆",
    "brief_intro": "谷文昌同志纪念馆",
    "historical_background": "谷文昌1950年代任东山县委书记，带领群众植树造林、治理风沙，把荒岛变为绿洲，'先祭谷公，后祭祖宗'成为当地习俗。",
    "per_capita_consumption": 0,
    "business_hours": "08:30-17:30",
    "average_rating": 4.5,
    "total_ratings": 100,
    "heat_score": 100,
    "recommend_score": 80
  },
  {
    "id": 226,
    "name": "塞罕坝展览馆",
    "address": "河北省承德市围场满族蒙古族自治县",
    "longitude": 117.25,
    "latitude": 42.4,
    "category": 8,
    "categoryName": "博物馆",
    "brief_intro": "塞罕坝机械林场展览馆",
    "historical_background": "1962年至今，三代塞罕坝人在荒漠沙地建起112万亩人工林海，创造了荒原变林海的人间奇迹，铸就了塞罕坝精神。",
    "per_capita_consumption": 800,
    "business_hours": "08:00-18:00",
    "average_rating": 4.5,
    "total_ratings": 100,
    "heat_score": 100,
    "recommend_score": 80
  },
  {
    "id": 227,
    "name": "两弹一星纪念馆",
    "address": "北京市海淀区怀柔区雁栖镇",
    "longitude": 116.6573,
    "latitude": 40.3616,
    "category": 1,
    "categoryName": "纪念馆",
    "brief_intro": "两弹一星功勋纪念馆",
    "historical_background": "1960-1970年代，在极端困难条件下，我国成功研制原子弹、氢弹和人造卫星，极大提升了国际地位和国防实力。",
    "per_capita_consumption": 3000,
    "business_hours": "09:00-16:00（需预约）",
    "average_rating": 4.5,
    "total_ratings": 100,
    "heat_score": 100,
    "recommend_score": 80
  },
  {
    "id": 228,
    "name": "两弹城景区",
    "address": "四川省绵阳市梓潼县文昌镇",
    "longitude": 105.2278,
    "latitude": 31.6472,
    "category": 9,
    "categoryName": "其他纪念地",
    "brief_intro": "中国工程物理研究院旧址",
    "historical_background": "1960年代，邓稼先等科学家在此研制核武器，成功研制出中国第一颗原子弹和氢弹，铸就了伟大的两弹一星精神。",
    "per_capita_consumption": 4000,
    "business_hours": "09:00-17:00",
    "average_rating": 4.5,
    "total_ratings": 100,
    "heat_score": 100,
    "recommend_score": 80
  },
  {
    "id": 229,
    "name": "邓稼先故居",
    "address": "安徽省安庆市宜秀区五横乡",
    "longitude": 117.0667,
    "latitude": 30.6,
    "category": 5,
    "categoryName": "名人故居",
    "brief_intro": "两弹元勋邓稼先出生地",
    "historical_background": "邓稼先是两弹元勋，为中国核武器研制作出卓越贡献，1950年代舍弃美国优厚条件回国，隐姓埋名28年。",
    "per_capita_consumption": 0,
    "business_hours": "09:00-17:00",
    "average_rating": 4.5,
    "total_ratings": 100,
    "heat_score": 100,
    "recommend_score": 80
  },
  {
    "id": 230,
    "name": "钱学森故居",
    "address": "浙江省杭州市上城区马市街",
    "longitude": 120.16,
    "latitude": 30.25,
    "category": 5,
    "categoryName": "名人故居",
    "brief_intro": "中国航天之父钱学森故居",
    "historical_background": "钱学森是空气动力学家，1955年冲破阻挠回国，为中国导弹、航天事业奠基，被誉为'中国航天之父'。",
    "per_capita_consumption": 0,
    "business_hours": "09:00-17:00",
    "average_rating": 4.5,
    "total_ratings": 100,
    "heat_score": 100,
    "recommend_score": 80
  },
  {
    "id": 231,
    "name": "南京长江大桥纪念馆",
    "address": "江苏省南京市鼓楼区下关宝塔桥",
    "longitude": 118.7333,
    "latitude": 32.1,
    "category": 8,
    "categoryName": "博物馆",
    "brief_intro": "南京长江大桥纪念馆",
    "historical_background": "1960-1968年，中国自行设计建造南京长江大桥，是长江上第一座由中国自行设计和建造的双层式铁路、公路两用桥梁。",
    "per_capita_consumption": 1500,
    "business_hours": "08:30-17:00",
    "average_rating": 4.5,
    "total_ratings": 100,
    "heat_score": 100,
    "recommend_score": 80
  },
  {
    "id": 232,
    "name": "小岗村大包干纪念馆",
    "address": "安徽省滁州市凤阳县小溪河镇",
    "longitude": 117.5667,
    "latitude": 32.7167,
    "category": 1,
    "categoryName": "纪念馆",
    "brief_intro": "中国农村改革发源地",
    "historical_background": "1978年冬，小岗村18户农民按下红手印，实行'大包干'，拉开了中国农村改革的序幕。",
    "per_capita_consumption": 500,
    "business_hours": "08:00-18:00",
    "average_rating": 4.5,
    "total_ratings": 100,
    "heat_score": 100,
    "recommend_score": 80
  },
  {
    "id": 233,
    "name": "深圳改革开放展览馆",
    "address": "广东省深圳市福田区福中路184号",
    "longitude": 114.05,
    "latitude": 22.55,
    "category": 8,
    "categoryName": "博物馆",
    "brief_intro": "深圳改革开放成就展",
    "historical_background": "1979年，深圳成为经济特区，作为改革开放的窗口，创造了世界工业化、城市化、现代化史上的奇迹。",
    "per_capita_consumption": 0,
    "business_hours": "10:00-18:00（周一闭馆）",
    "average_rating": 4.5,
    "total_ratings": 100,
    "heat_score": 100,
    "recommend_score": 80
  },
  {
    "id": 234,
    "name": "珠海经济特区纪念馆",
    "address": "广东省珠海市香洲区",
    "longitude": 113.55,
    "latitude": 22.15,
    "category": 8,
    "categoryName": "博物馆",
    "brief_intro": "珠海经济特区发展纪念馆",
    "historical_background": "1980年设立珠海经济特区，是中国最早的经济特区之一，在改革开放中走在前列。",
    "per_capita_consumption": 0,
    "business_hours": "09:00-17:00",
    "average_rating": 4.5,
    "total_ratings": 100,
    "heat_score": 100,
    "recommend_score": 80
  },
  {
    "id": 235,
    "name": "汕头经济特区纪念馆",
    "address": "广东省汕头市龙湖区",
    "longitude": 116.7086,
    "latitude": 23.354,
    "category": 8,
    "categoryName": "博物馆",
    "brief_intro": "汕头经济特区纪念馆",
    "historical_background": "1981年设立汕头经济特区，是粤东地区改革开放的重要窗口，侨乡特色明显。",
    "per_capita_consumption": 0,
    "business_hours": "09:00-17:00",
    "average_rating": 4.5,
    "total_ratings": 100,
    "heat_score": 100,
    "recommend_score": 80
  },
  {
    "id": 236,
    "name": "厦门经济特区纪念馆",
    "address": "福建省厦门市湖里区",
    "longitude": 118.15,
    "latitude": 24.5,
    "category": 8,
    "categoryName": "博物馆",
    "brief_intro": "厦门经济特区纪念馆",
    "historical_background": "1980年设立厦门经济特区，是对台工作重要基地，在两岸交流合作中发挥独特作用。",
    "per_capita_consumption": 0,
    "business_hours": "09:00-17:00",
    "average_rating": 4.5,
    "total_ratings": 100,
    "heat_score": 100,
    "recommend_score": 80
  },
  {
    "id": 237,
    "name": "海南经济特区纪念馆",
    "address": "海南省海口市龙华区",
    "longitude": 110.32,
    "latitude": 20.03,
    "category": 8,
    "categoryName": "博物馆",
    "brief_intro": "海南经济特区纪念馆",
    "historical_background": "1988年设立海南经济特区，是中国最大的经济特区，2018年建设自由贸易试验区。",
    "per_capita_consumption": 0,
    "business_hours": "09:00-17:00",
    "average_rating": 4.5,
    "total_ratings": 100,
    "heat_score": 100,
    "recommend_score": 80
  },
  {
    "id": 238,
    "name": "浦东开发开放展览馆",
    "address": "上海市浦东新区世纪大道",
    "longitude": 121.5333,
    "latitude": 31.2333,
    "category": 8,
    "categoryName": "博物馆",
    "brief_intro": "浦东开发开放成就展",
    "historical_background": "1990年党中央决定开发开放浦东，30多年间从农田滩涂建成现代化新城，成为改革开放新标杆。",
    "per_capita_consumption": 0,
    "business_hours": "09:00-17:00",
    "average_rating": 4.5,
    "total_ratings": 100,
    "heat_score": 100,
    "recommend_score": 80
  },
  {
    "id": 239,
    "name": "雄安新区规划展示中心",
    "address": "河北省保定市容城县奥威路",
    "longitude": 115.8667,
    "latitude": 39.05,
    "category": 9,
    "categoryName": "其他纪念地",
    "brief_intro": "雄安新区规划展示",
    "historical_background": "2017年党中央决定设立雄安新区，是千年大计、国家大事，是京津冀协同发展的重要战略举措。",
    "per_capita_consumption": 0,
    "business_hours": "09:00-17:00（需预约）",
    "average_rating": 4.5,
    "total_ratings": 100,
    "heat_score": 100,
    "recommend_score": 80
  },
  {
    "id": 240,
    "name": "港珠澳大桥管理局展览馆",
    "address": "广东省珠海市香洲区南湾南路",
    "longitude": 113.5167,
    "latitude": 22.2,
    "category": 8,
    "categoryName": "博物馆",
    "brief_intro": "港珠澳大桥建设成就展",
    "historical_background": "2018年港珠澳大桥通车，是世界上最长的跨海大桥，被誉为'新世界七大奇迹'之一。",
    "per_capita_consumption": 500,
    "business_hours": "09:00-17:00",
    "average_rating": 4.5,
    "total_ratings": 100,
    "heat_score": 100,
    "recommend_score": 80
  }
]